[{"Date":"2020-02-24","CountryCode":"CN","CountryName":"China","RegionCode":"QH","RegionName":"Qinghai","Confirmed":"18","Deaths":"0","Latitude":"35.7452","Longitude":"95.9956","Population":null},{"Date":"2020-03-08","CountryCode":"CN","CountryName":"China","RegionCode":"AH","RegionName":"Anhui","Confirmed":"990","Deaths":"6","Latitude":"31.8257","Longitude":"117.2264","Population":null},{"Date":"2020-03-08","CountryCode":"CN","CountryName":"China","RegionCode":"XJ","RegionName":"Xinjiang","Confirmed":"76","Deaths":"3","Latitude":"41.1129","Longitude":"85.2401","Population":null},{"Date":"2020-03-13","CountryCode":"CN","CountryName":"China","RegionCode":"JL","RegionName":"Jilin","Confirmed":"93","Deaths":"1","Latitude":"43.6661","Longitude":"126.1923","Population":null},{"Date":"2020-03-13","CountryCode":"VC","CountryName":"Saint Vincent and the Grenadines","RegionCode":null,"RegionName":null,"Confirmed":"1","Deaths":"0","Latitude":"12.984305","Longitude":"-61.287228","Population":"110589"},{"Date":"2020-03-14","CountryCode":"CN","CountryName":"China","RegionCode":"HA","RegionName":"Henan","Confirmed":"1273","Deaths":"22","Latitude":"33.882","Longitude":"113.614","Population":null},{"Date":"2020-03-14","CountryCode":"CN","CountryName":"China","RegionCode":"HN","RegionName":"Hunan","Confirmed":"1018","Deaths":"4","Latitude":"27.6104","Longitude":"111.7088","Population":null},{"Date":"2020-03-16","CountryCode":"CN","CountryName":"China","RegionCode":"NX","RegionName":"Ningxia","Confirmed":"75","Deaths":"0","Latitude":"37.2692","Longitude":"106.1655","Population":null},{"Date":"2020-03-17","CountryCode":"CN","CountryName":"China","RegionCode":"HI","RegionName":"Hainan","Confirmed":"168","Deaths":"6","Latitude":"19.1959","Longitude":"109.7453","Population":null},{"Date":"2020-03-17","CountryCode":"CN","CountryName":"China","RegionCode":"YN","RegionName":"Yunnan","Confirmed":"176","Deaths":"2","Latitude":"24.974","Longitude":"101.487","Population":null},{"Date":"2020-03-17","CountryCode":"MM","CountryName":"Myanmar","RegionCode":null,"RegionName":null,"Confirmed":"0","Deaths":"0","Latitude":"21.913965","Longitude":"95.956223","Population":"54045420"},{"Date":"2020-03-18","CountryCode":"CN","CountryName":"China","RegionCode":"GZ","RegionName":"Guizhou","Confirmed":"146","Deaths":"2","Latitude":"26.8154","Longitude":"106.8748","Population":null},{"Date":"2020-03-20","CountryCode":"CN","CountryName":"China","RegionCode":"GX","RegionName":"Guangxi","Confirmed":"254","Deaths":"2","Latitude":"23.8298","Longitude":"108.7881","Population":null},{"Date":"2020-03-20","CountryCode":"CN","CountryName":"China","RegionCode":"TJ","RegionName":"Tianjin","Confirmed":"137","Deaths":"3","Latitude":"39.3054","Longitude":"117.323","Population":null},{"Date":"2020-03-20","CountryCode":"ES","CountryName":"Spain","RegionCode":"CM","RegionName":"Castilla La Mancha","Confirmed":"1044","Deaths":"62","Latitude":"39.8628","Longitude":"-4.0273","Population":null},{"Date":"2020-03-21","CountryCode":"CN","CountryName":"China","RegionCode":"SN","RegionName":"Shaanxi","Confirmed":"248","Deaths":"3","Latitude":"35.1917","Longitude":"108.8701","Population":null},{"Date":"2020-03-22","CountryCode":"AD","CountryName":"Andorra","RegionCode":null,"RegionName":null,"Confirmed":"88","Deaths":"0","Latitude":"42.546245","Longitude":"1.601554","Population":"77142"},{"Date":"2020-03-22","CountryCode":"AE","CountryName":"United Arab Emirates","RegionCode":null,"RegionName":null,"Confirmed":"153","Deaths":"2","Latitude":"23.424076","Longitude":"53.847818","Population":"9770529"},{"Date":"2020-03-22","CountryCode":"AF","CountryName":"Afghanistan","RegionCode":null,"RegionName":null,"Confirmed":"24","Deaths":"0","Latitude":"33.93911","Longitude":"67.709953","Population":"38041754"},{"Date":"2020-03-22","CountryCode":"AG","CountryName":"Antigua and Barbuda","RegionCode":null,"RegionName":null,"Confirmed":"1","Deaths":"0","Latitude":"17.060816","Longitude":"-61.796428","Population":"97118"},{"Date":"2020-03-22","CountryCode":"AL","CountryName":"Albania","RegionCode":null,"RegionName":null,"Confirmed":"76","Deaths":"2","Latitude":"41.153332","Longitude":"20.168331","Population":"2880917"},{"Date":"2020-03-22","CountryCode":"AM","CountryName":"Armenia","RegionCode":null,"RegionName":null,"Confirmed":"160","Deaths":"0","Latitude":"40.069099","Longitude":"45.038189","Population":"2957731"},{"Date":"2020-03-22","CountryCode":"AN","CountryName":"Netherlands Antilles","RegionCode":null,"RegionName":null,"Confirmed":"13","Deaths":"0","Latitude":"12.226079","Longitude":"-69.060087","Population":null},{"Date":"2020-03-22","CountryCode":"AO","CountryName":"Angola","RegionCode":null,"RegionName":null,"Confirmed":"2","Deaths":"0","Latitude":"-11.202692","Longitude":"17.873887","Population":"31825295"},{"Date":"2020-03-22","CountryCode":"AR","CountryName":"Argentina","RegionCode":null,"RegionName":null,"Confirmed":"225","Deaths":"4","Latitude":"-38.416097","Longitude":"-63.616672","Population":"44780677"},{"Date":"2020-03-22","CountryCode":"AT","CountryName":"Austria","RegionCode":null,"RegionName":null,"Confirmed":"3024","Deaths":"8","Latitude":"47.516231","Longitude":"14.550072","Population":"8955102"},{"Date":"2020-03-22","CountryCode":"AU","CountryName":"Australia","RegionCode":null,"RegionName":null,"Confirmed":"1098","Deaths":"7","Latitude":"-25.274398","Longitude":"133.775136","Population":"25203198"},{"Date":"2020-03-22","CountryCode":"AZ","CountryName":"Azerbaijan","RegionCode":null,"RegionName":null,"Confirmed":"53","Deaths":"1","Latitude":"40.143105","Longitude":"47.576927","Population":"10047718"},{"Date":"2020-03-22","CountryCode":"BA","CountryName":"Bosnia and Herzegovina","RegionCode":null,"RegionName":null,"Confirmed":"92","Deaths":"1","Latitude":"43.915886","Longitude":"17.679076","Population":"3301000"},{"Date":"2020-03-22","CountryCode":"BB","CountryName":"Barbados","RegionCode":null,"RegionName":null,"Confirmed":"14","Deaths":"0","Latitude":"13.193887","Longitude":"-59.543198","Population":"287025"},{"Date":"2020-03-22","CountryCode":"BD","CountryName":"Bangladesh","RegionCode":null,"RegionName":null,"Confirmed":"24","Deaths":"2","Latitude":"23.684994","Longitude":"90.356331","Population":"163046161"},{"Date":"2020-03-22","CountryCode":"BE","CountryName":"Belgium","RegionCode":null,"RegionName":null,"Confirmed":"2815","Deaths":"67","Latitude":"50.503887","Longitude":"4.469936","Population":"11539328"},{"Date":"2020-03-22","CountryCode":"BF","CountryName":"Burkina Faso","RegionCode":null,"RegionName":null,"Confirmed":"64","Deaths":"3","Latitude":"12.238333","Longitude":"-1.561593","Population":"20321378"},{"Date":"2020-03-22","CountryCode":"BG","CountryName":"Bulgaria","RegionCode":null,"RegionName":null,"Confirmed":"163","Deaths":"3","Latitude":"42.733883","Longitude":"25.48583","Population":"7000119"},{"Date":"2020-03-22","CountryCode":"BH","CountryName":"Bahrain","RegionCode":null,"RegionName":null,"Confirmed":"306","Deaths":"1","Latitude":"25.930414","Longitude":"50.637772","Population":"1641172"},{"Date":"2020-03-22","CountryCode":"BJ","CountryName":"Benin","RegionCode":null,"RegionName":null,"Confirmed":"2","Deaths":"0","Latitude":"9.30769","Longitude":"2.315834","Population":"11801151"},{"Date":"2020-03-22","CountryCode":"BM","CountryName":"Bermuda","RegionCode":null,"RegionName":null,"Confirmed":"2","Deaths":"0","Latitude":"32.321384","Longitude":"-64.75737","Population":"62506"},{"Date":"2020-03-22","CountryCode":"BN","CountryName":"Brunei","RegionCode":null,"RegionName":null,"Confirmed":"83","Deaths":"0","Latitude":"4.535277","Longitude":"114.727669","Population":"433285"},{"Date":"2020-03-22","CountryCode":"BO","CountryName":"Bolivia","RegionCode":null,"RegionName":null,"Confirmed":"20","Deaths":"0","Latitude":"-16.290154","Longitude":"-63.588653","Population":"11513100"},{"Date":"2020-03-22","CountryCode":"BR","CountryName":"Brazil","RegionCode":null,"RegionName":null,"Confirmed":"1128","Deaths":"18","Latitude":"-14.235004","Longitude":"-51.92528","Population":"211049527"},{"Date":"2020-03-22","CountryCode":"BS","CountryName":"Bahamas","RegionCode":null,"RegionName":null,"Confirmed":"4","Deaths":"0","Latitude":"25.03428","Longitude":"-77.39628","Population":"389482"},{"Date":"2020-03-22","CountryCode":"BT","CountryName":"Bhutan","RegionCode":null,"RegionName":null,"Confirmed":"2","Deaths":"0","Latitude":"27.514162","Longitude":"90.433601","Population":"763092"},{"Date":"2020-03-22","CountryCode":"BY","CountryName":"Belarus","RegionCode":null,"RegionName":null,"Confirmed":"76","Deaths":"0","Latitude":"53.709807","Longitude":"27.953389","Population":"9452411"},{"Date":"2020-03-22","CountryCode":"CA","CountryName":"Canada","RegionCode":null,"RegionName":null,"Confirmed":"1231","Deaths":"13","Latitude":"56.130366","Longitude":"-106.346771","Population":"37411047"},{"Date":"2020-03-22","CountryCode":"CD","CountryName":"Democratic Republic of the Congo","RegionCode":null,"RegionName":null,"Confirmed":"23","Deaths":"1","Latitude":"-4.038333","Longitude":"21.758664","Population":"86790567"},{"Date":"2020-03-22","CountryCode":"CF","CountryName":"Central African Republic","RegionCode":null,"RegionName":null,"Confirmed":"3","Deaths":"0","Latitude":"6.611111","Longitude":"20.939444","Population":"4745185"},{"Date":"2020-03-22","CountryCode":"CG","CountryName":"Republic of the Congo","RegionCode":null,"RegionName":null,"Confirmed":"4","Deaths":"0","Latitude":"-0.228021","Longitude":"15.827659","Population":"5380508"},{"Date":"2020-03-22","CountryCode":"CH","CountryName":"Switzerland","RegionCode":null,"RegionName":null,"Confirmed":"6077","Deaths":"56","Latitude":"46.818188","Longitude":"8.227512","Population":"8591365"},{"Date":"2020-03-22","CountryCode":"CI","CountryName":"Ivory Coast","RegionCode":null,"RegionName":null,"Confirmed":"17","Deaths":"0","Latitude":"7.539989","Longitude":"-5.54708","Population":"25716544"},{"Date":"2020-03-22","CountryCode":"CL","CountryName":"Chile","RegionCode":null,"RegionName":null,"Confirmed":"537","Deaths":"0","Latitude":"-35.675147","Longitude":"-71.542969","Population":"18952038"},{"Date":"2020-03-22","CountryCode":"CM","CountryName":"Cameroon","RegionCode":null,"RegionName":null,"Confirmed":"27","Deaths":"0","Latitude":"7.369722","Longitude":"12.354722","Population":"25876380"},{"Date":"2020-03-22","CountryCode":"CN","CountryName":"China","RegionCode":"BJ","RegionName":"Beijing","Confirmed":"514","Deaths":"8","Latitude":"40.1824","Longitude":"116.4142","Population":null},{"Date":"2020-03-22","CountryCode":"CN","CountryName":"China","RegionCode":"FJ","RegionName":"Fujian","Confirmed":"307","Deaths":"1","Latitude":"26.0789","Longitude":"117.9874","Population":null},{"Date":"2020-03-22","CountryCode":"CN","CountryName":"China","RegionCode":"GD","RegionName":"Guangdong","Confirmed":"1407","Deaths":"8","Latitude":"23.3417","Longitude":"113.4244","Population":null},{"Date":"2020-03-22","CountryCode":"CN","CountryName":"China","RegionCode":"HB","RegionName":"Hubei","Confirmed":"67800","Deaths":"3144","Latitude":"30.9756","Longitude":"112.2707","Population":null},{"Date":"2020-03-22","CountryCode":"CN","CountryName":"China","RegionCode":"HE","RegionName":"Hebei","Confirmed":"319","Deaths":"6","Latitude":"39.549","Longitude":"116.1306","Population":null},{"Date":"2020-03-22","CountryCode":"CN","CountryName":"China","RegionCode":"HK","RegionName":"Hong Kong","Confirmed":"317","Deaths":"4","Latitude":"22.3","Longitude":"114.2","Population":null},{"Date":"2020-03-22","CountryCode":"CN","CountryName":"China","RegionCode":"HL","RegionName":"Heilongjiang","Confirmed":"484","Deaths":"13","Latitude":"47.862","Longitude":"127.7615","Population":null},{"Date":"2020-03-22","CountryCode":"CN","CountryName":"China","RegionCode":"JS","RegionName":"Jiangsu","Confirmed":"633","Deaths":"0","Latitude":"32.9711","Longitude":"119.455","Population":null},{"Date":"2020-03-22","CountryCode":"CN","CountryName":"China","RegionCode":"JX","RegionName":"Jiangxi","Confirmed":"936","Deaths":"1","Latitude":"27.614","Longitude":"115.7221","Population":null},{"Date":"2020-03-22","CountryCode":"CN","CountryName":"China","RegionCode":"LN","RegionName":"Liaoning","Confirmed":"126","Deaths":"2","Latitude":"41.2956","Longitude":"122.6085","Population":null},{"Date":"2020-03-22","CountryCode":"CN","CountryName":"China","RegionCode":"SC","RegionName":"Sichuan","Confirmed":"543","Deaths":"3","Latitude":"30.6171","Longitude":"102.7103","Population":null},{"Date":"2020-03-22","CountryCode":"CN","CountryName":"China","RegionCode":"SD","RegionName":"Shandong","Confirmed":"766","Deaths":"7","Latitude":"36.3427","Longitude":"118.1498","Population":null},{"Date":"2020-03-22","CountryCode":"CN","CountryName":"China","RegionCode":"SH","RegionName":"Shanghai","Confirmed":"394","Deaths":"4","Latitude":"31.202","Longitude":"121.4491","Population":null},{"Date":"2020-03-22","CountryCode":"CN","CountryName":"China","RegionCode":"ZJ","RegionName":"Zhejiang","Confirmed":"1237","Deaths":"1","Latitude":"29.1832","Longitude":"120.0934","Population":null},{"Date":"2020-03-22","CountryCode":"CN","CountryName":"China","RegionCode":null,"RegionName":null,"Confirmed":"81499","Deaths":"3267","Latitude":"35.86166","Longitude":"104.195397","Population":"1433783686"},{"Date":"2020-03-22","CountryCode":"CO","CountryName":"Colombia","RegionCode":null,"RegionName":null,"Confirmed":"210","Deaths":"1","Latitude":"4.570868","Longitude":"-74.297333","Population":"50339443"},{"Date":"2020-03-22","CountryCode":"CR","CountryName":"Costa Rica","RegionCode":null,"RegionName":null,"Confirmed":"117","Deaths":"2","Latitude":"9.748917","Longitude":"-83.753428","Population":"5047561"},{"Date":"2020-03-22","CountryCode":"CU","CountryName":"Cuba","RegionCode":null,"RegionName":null,"Confirmed":"25","Deaths":"1","Latitude":"21.521757","Longitude":"-77.781167","Population":"11333483"},{"Date":"2020-03-22","CountryCode":"CV","CountryName":"Cape Verde","RegionCode":null,"RegionName":null,"Confirmed":"3","Deaths":"0","Latitude":"16.002082","Longitude":"-24.013197","Population":"549935"},{"Date":"2020-03-22","CountryCode":"CY","CountryName":"Cyprus","RegionCode":null,"RegionName":null,"Confirmed":"84","Deaths":"0","Latitude":"35.126413","Longitude":"33.429859","Population":"1179551"},{"Date":"2020-03-22","CountryCode":"CZ","CountryName":"Czech Republic","RegionCode":null,"RegionName":null,"Confirmed":"995","Deaths":"0","Latitude":"49.817492","Longitude":"15.472962","Population":"10689209"},{"Date":"2020-03-22","CountryCode":"DE","CountryName":"Germany","RegionCode":null,"RegionName":null,"Confirmed":"21463","Deaths":"67","Latitude":"51.165691","Longitude":"10.451526","Population":"83517045"},{"Date":"2020-03-22","CountryCode":"DJ","CountryName":"Djibouti","RegionCode":null,"RegionName":null,"Confirmed":"1","Deaths":"0","Latitude":"11.825138","Longitude":"42.590275","Population":"973560"},{"Date":"2020-03-22","CountryCode":"DK","CountryName":"Denmark","RegionCode":null,"RegionName":null,"Confirmed":"1326","Deaths":"13","Latitude":"56.26392","Longitude":"9.501785","Population":"5771876"},{"Date":"2020-03-22","CountryCode":"DO","CountryName":"Dominican Republic","RegionCode":null,"RegionName":null,"Confirmed":"112","Deaths":"3","Latitude":"18.735693","Longitude":"-70.162651","Population":"10738958"},{"Date":"2020-03-22","CountryCode":"DZ","CountryName":"Algeria","RegionCode":null,"RegionName":null,"Confirmed":"94","Deaths":"10","Latitude":"28.033886","Longitude":"1.659626","Population":"43053054"},{"Date":"2020-03-22","CountryCode":"EC","CountryName":"Ecuador","RegionCode":null,"RegionName":null,"Confirmed":"532","Deaths":"7","Latitude":"-1.831239","Longitude":"-78.183406","Population":"17373662"},{"Date":"2020-03-22","CountryCode":"EE","CountryName":"Estonia","RegionCode":null,"RegionName":null,"Confirmed":"306","Deaths":"0","Latitude":"58.595272","Longitude":"25.013607","Population":"1325648"},{"Date":"2020-03-22","CountryCode":"EG","CountryName":"Egypt","RegionCode":null,"RegionName":null,"Confirmed":"285","Deaths":"8","Latitude":"26.820553","Longitude":"30.802498","Population":"100388073"},{"Date":"2020-03-22","CountryCode":"ER","CountryName":"Eritrea","RegionCode":null,"RegionName":null,"Confirmed":"1","Deaths":"0","Latitude":"15.179384","Longitude":"39.782334","Population":"3497117"},{"Date":"2020-03-22","CountryCode":"ES","CountryName":"Spain","RegionCode":"AN","RegionName":"Andalucía","Confirmed":"1725","Deaths":"47","Latitude":"37.3828","Longitude":"-5.9731","Population":null},{"Date":"2020-03-22","CountryCode":"ES","CountryName":"Spain","RegionCode":"AR","RegionName":"Aragón","Confirmed":"532","Deaths":"24","Latitude":"41.6560","Longitude":"-0.8773","Population":null},{"Date":"2020-03-22","CountryCode":"ES","CountryName":"Spain","RegionCode":"AS","RegionName":"Asturias","Confirmed":"545","Deaths":"8","Latitude":"43.3602","Longitude":"-5.8447","Population":null},{"Date":"2020-03-22","CountryCode":"ES","CountryName":"Spain","RegionCode":"CB","RegionName":"Cantabria","Confirmed":"282","Deaths":"5","Latitude":"43.4647","Longitude":"-3.8044","Population":null},{"Date":"2020-03-22","CountryCode":"ES","CountryName":"Spain","RegionCode":"CE","RegionName":"Ceuta","Confirmed":"5","Deaths":"0","Latitude":"35.8893","Longitude":"-5.3198","Population":null},{"Date":"2020-03-22","CountryCode":"ES","CountryName":"Spain","RegionCode":"CL","RegionName":"Castilla y León","Confirmed":"1744","Deaths":"74","Latitude":"41.6523","Longitude":"-4.7245","Population":null},{"Date":"2020-03-22","CountryCode":"ES","CountryName":"Spain","RegionCode":"CN","RegionName":"Islas Canarias","Confirmed":"414","Deaths":"9","Latitude":"28.4682","Longitude":"-16.2546","Population":null},{"Date":"2020-03-22","CountryCode":"ES","CountryName":"Spain","RegionCode":"CT","RegionName":"Cataluña","Confirmed":"4704","Deaths":"191","Latitude":"41.3887","Longitude":"2.1590","Population":null},{"Date":"2020-03-22","CountryCode":"ES","CountryName":"Spain","RegionCode":"EX","RegionName":"Extremadura","Confirmed":"384","Deaths":"14","Latitude":"38.9161","Longitude":"-6.3436","Population":null},{"Date":"2020-03-22","CountryCode":"ES","CountryName":"Spain","RegionCode":"GA","RegionName":"Galicia","Confirmed":"915","Deaths":"12","Latitude":"42.2328","Longitude":"-8.7226","Population":null},{"Date":"2020-03-22","CountryCode":"ES","CountryName":"Spain","RegionCode":"IB","RegionName":"Islas Baleares","Confirmed":"331","Deaths":"4","Latitude":"39.5693","Longitude":"2.6502","Population":null},{"Date":"2020-03-22","CountryCode":"ES","CountryName":"Spain","RegionCode":"MC","RegionName":"Murcia","Confirmed":"296","Deaths":"1","Latitude":"37.9870415","Longitude":"-1.13004","Population":null},{"Date":"2020-03-22","CountryCode":"ES","CountryName":"Spain","RegionCode":"MD","RegionName":"Madrid","Confirmed":"9702","Deaths":"1021","Latitude":"40.4165001","Longitude":"-3.7025599","Population":null},{"Date":"2020-03-22","CountryCode":"ES","CountryName":"Spain","RegionCode":"ML","RegionName":"Melilla","Confirmed":"25","Deaths":"0","Latitude":"35.2937","Longitude":"-2.9383","Population":null},{"Date":"2020-03-22","CountryCode":"ES","CountryName":"Spain","RegionCode":"NC","RegionName":"Navarra","Confirmed":"794","Deaths":"14","Latitude":"42.8169","Longitude":"-1.6432","Population":null},{"Date":"2020-03-22","CountryCode":"ES","CountryName":"Spain","RegionCode":"PV","RegionName":"País Vasco","Confirmed":"2097","Deaths":"97","Latitude":"43.2627","Longitude":"-2.9253","Population":null},{"Date":"2020-03-22","CountryCode":"ES","CountryName":"Spain","RegionCode":"RI","RegionName":"La Rioja","Confirmed":"654","Deaths":"18","Latitude":"42.4667","Longitude":"-2.4500","Population":null},{"Date":"2020-03-22","CountryCode":"ES","CountryName":"Spain","RegionCode":"VC","RegionName":"Comunidad Valenciana","Confirmed":"1604","Deaths":"69","Latitude":"39.4697","Longitude":"-0.3774","Population":null},{"Date":"2020-03-22","CountryCode":"ET","CountryName":"Ethiopia","RegionCode":null,"RegionName":null,"Confirmed":"9","Deaths":"0","Latitude":"9.145","Longitude":"40.489673","Population":"112078730"},{"Date":"2020-03-22","CountryCode":"FI","CountryName":"Finland","RegionCode":null,"RegionName":null,"Confirmed":"521","Deaths":"1","Latitude":"61.92411","Longitude":"25.748151","Population":"5532156"},{"Date":"2020-03-22","CountryCode":"FJ","CountryName":"Fiji","RegionCode":null,"RegionName":null,"Confirmed":"2","Deaths":"0","Latitude":"-16.578193","Longitude":"179.414413","Population":"889953"},{"Date":"2020-03-22","CountryCode":"FO","CountryName":"Faroe Islands","RegionCode":null,"RegionName":null,"Confirmed":"92","Deaths":"0","Latitude":"61.892635","Longitude":"-6.911806","Population":"48678"},{"Date":"2020-03-22","CountryCode":"FR","CountryName":"France","RegionCode":null,"RegionName":null,"Confirmed":"14459","Deaths":"562","Latitude":"46.227638","Longitude":"2.213749","Population":"65129728"},{"Date":"2020-03-22","CountryCode":"GA","CountryName":"Gabon","RegionCode":null,"RegionName":null,"Confirmed":"3","Deaths":"1","Latitude":"-0.803689","Longitude":"11.609444","Population":"2172579"},{"Date":"2020-03-22","CountryCode":"GB","CountryName":"United Kingdom","RegionCode":null,"RegionName":null,"Confirmed":"5018","Deaths":"233","Latitude":"55.378051","Longitude":"-3.435973","Population":"67530172"},{"Date":"2020-03-22","CountryCode":"GE","CountryName":"Georgia","RegionCode":null,"RegionName":null,"Confirmed":"49","Deaths":"0","Latitude":"42.315407","Longitude":"43.356892","Population":"3996765"},{"Date":"2020-03-22","CountryCode":"GG","CountryName":"Guernsey","RegionCode":null,"RegionName":null,"Confirmed":"1","Deaths":"0","Latitude":"49.465691","Longitude":"-2.585278","Population":"172259"},{"Date":"2020-03-22","CountryCode":"GH","CountryName":"Ghana","RegionCode":null,"RegionName":null,"Confirmed":"21","Deaths":"1","Latitude":"7.946527","Longitude":"-1.023194","Population":"28833629"},{"Date":"2020-03-22","CountryCode":"GI","CountryName":"Gibraltar","RegionCode":null,"RegionName":null,"Confirmed":"10","Deaths":"0","Latitude":"36.137741","Longitude":"-5.345374","Population":"33701"},{"Date":"2020-03-22","CountryCode":"GL","CountryName":"Greenland","RegionCode":null,"RegionName":null,"Confirmed":"2","Deaths":"0","Latitude":"71.706936","Longitude":"-42.604303","Population":"56672"},{"Date":"2020-03-22","CountryCode":"GM","CountryName":"Gambia","RegionCode":null,"RegionName":null,"Confirmed":"1","Deaths":"0","Latitude":"13.443182","Longitude":"-15.310139","Population":"2347706"},{"Date":"2020-03-22","CountryCode":"GN","CountryName":"Guinea","RegionCode":null,"RegionName":null,"Confirmed":"2","Deaths":"0","Latitude":"9.945587","Longitude":"-9.696645","Population":"12771246"},{"Date":"2020-03-22","CountryCode":"GQ","CountryName":"Equatorial Guinea","RegionCode":null,"RegionName":null,"Confirmed":"6","Deaths":"0","Latitude":"1.650801","Longitude":"10.267895","Population":"1355986"},{"Date":"2020-03-22","CountryCode":"GR","CountryName":"Greece","RegionCode":null,"RegionName":null,"Confirmed":"530","Deaths":"13","Latitude":"39.074208","Longitude":"21.824312","Population":"10473455"},{"Date":"2020-03-22","CountryCode":"GT","CountryName":"Guatemala","RegionCode":null,"RegionName":null,"Confirmed":"17","Deaths":"1","Latitude":"15.783471","Longitude":"-90.230759","Population":"17581472"},{"Date":"2020-03-22","CountryCode":"GU","CountryName":"Guam","RegionCode":null,"RegionName":null,"Confirmed":"15","Deaths":"1","Latitude":"13.444304","Longitude":"144.793731","Population":"167294"},{"Date":"2020-03-22","CountryCode":"GY","CountryName":"Guyana","RegionCode":null,"RegionName":null,"Confirmed":"5","Deaths":"1","Latitude":"4.860416","Longitude":"-58.93018","Population":"782766"},{"Date":"2020-03-22","CountryCode":"HN","CountryName":"Honduras","RegionCode":null,"RegionName":null,"Confirmed":"26","Deaths":"0","Latitude":"15.199999","Longitude":"-86.241905","Population":"9746117"},{"Date":"2020-03-22","CountryCode":"HR","CountryName":"Croatia","RegionCode":null,"RegionName":null,"Confirmed":"206","Deaths":"1","Latitude":"45.1","Longitude":"15.2","Population":"4130304"},{"Date":"2020-03-22","CountryCode":"HT","CountryName":"Haiti","RegionCode":null,"RegionName":null,"Confirmed":"2","Deaths":"0","Latitude":"18.971187","Longitude":"-72.285215","Population":"11263770"},{"Date":"2020-03-22","CountryCode":"HU","CountryName":"Hungary","RegionCode":null,"RegionName":null,"Confirmed":"131","Deaths":"4","Latitude":"47.162494","Longitude":"19.503304","Population":"9684679"},{"Date":"2020-03-22","CountryCode":"ID","CountryName":"Indonesia","RegionCode":null,"RegionName":null,"Confirmed":"450","Deaths":"38","Latitude":"-0.789275","Longitude":"113.921327","Population":"270625568"},{"Date":"2020-03-22","CountryCode":"IE","CountryName":"Ireland","RegionCode":null,"RegionName":null,"Confirmed":"785","Deaths":"3","Latitude":"53.41291","Longitude":"-8.24389","Population":"4882495"},{"Date":"2020-03-22","CountryCode":"IL","CountryName":"Israel","RegionCode":null,"RegionName":null,"Confirmed":"883","Deaths":"1","Latitude":"31.046051","Longitude":"34.851612","Population":"8519377"},{"Date":"2020-03-22","CountryCode":"IM","CountryName":"Isle of Man","RegionCode":null,"RegionName":null,"Confirmed":"2","Deaths":"0","Latitude":"54.236107","Longitude":"-4.548056","Population":"84584"},{"Date":"2020-03-22","CountryCode":"IN","CountryName":"India","RegionCode":null,"RegionName":null,"Confirmed":"320","Deaths":"4","Latitude":"20.593684","Longitude":"78.96288","Population":"1366417754"},{"Date":"2020-03-22","CountryCode":"IQ","CountryName":"Iraq","RegionCode":null,"RegionName":null,"Confirmed":"214","Deaths":"17","Latitude":"33.223191","Longitude":"43.679291","Population":"39309783"},{"Date":"2020-03-22","CountryCode":"IR","CountryName":"Iran","RegionCode":null,"RegionName":null,"Confirmed":"20610","Deaths":"1556","Latitude":"32.427908","Longitude":"53.688046","Population":"82913906"},{"Date":"2020-03-22","CountryCode":"IS","CountryName":"Iceland","RegionCode":null,"RegionName":null,"Confirmed":"473","Deaths":"1","Latitude":"64.963051","Longitude":"-19.020835","Population":"339031"},{"Date":"2020-03-22","CountryCode":"JE","CountryName":"Jersey","RegionCode":null,"RegionName":null,"Confirmed":"12","Deaths":"0","Latitude":"49.214439","Longitude":"-2.13125","Population":"172259"},{"Date":"2020-03-22","CountryCode":"JM","CountryName":"Jamaica","RegionCode":null,"RegionName":null,"Confirmed":"19","Deaths":"0","Latitude":"18.109581","Longitude":"-77.297508","Population":"2948279"},{"Date":"2020-03-22","CountryCode":"JO","CountryName":"Jordan","RegionCode":null,"RegionName":null,"Confirmed":"84","Deaths":"0","Latitude":"30.585164","Longitude":"36.238414","Population":"10101694"},{"Date":"2020-03-22","CountryCode":"JP","CountryName":"Japan","RegionCode":null,"RegionName":null,"Confirmed":"1046","Deaths":"36","Latitude":"36.204824","Longitude":"138.252924","Population":"126860301"},{"Date":"2020-03-22","CountryCode":"KE","CountryName":"Kenya","RegionCode":null,"RegionName":null,"Confirmed":"7","Deaths":"0","Latitude":"-0.023559","Longitude":"37.906193","Population":"52573973"},{"Date":"2020-03-22","CountryCode":"KG","CountryName":"Kyrgyzstan","RegionCode":null,"RegionName":null,"Confirmed":"14","Deaths":"0","Latitude":"41.20438","Longitude":"74.766098","Population":"6415850"},{"Date":"2020-03-22","CountryCode":"KH","CountryName":"Cambodia","RegionCode":null,"RegionName":null,"Confirmed":"51","Deaths":"0","Latitude":"12.565679","Longitude":"104.990963","Population":"16486542"},{"Date":"2020-03-22","CountryCode":"KR","CountryName":"South Korea","RegionCode":null,"RegionName":null,"Confirmed":"8897","Deaths":"104","Latitude":"35.907757","Longitude":"127.766922","Population":"51225308"},{"Date":"2020-03-22","CountryCode":"KW","CountryName":"Kuwait","RegionCode":null,"RegionName":null,"Confirmed":"176","Deaths":"0","Latitude":"29.31166","Longitude":"47.481766","Population":"4207083"},{"Date":"2020-03-22","CountryCode":"KY","CountryName":"Cayman Islands","RegionCode":null,"RegionName":null,"Confirmed":"3","Deaths":"1","Latitude":"19.513469","Longitude":"-80.566956","Population":"64948"},{"Date":"2020-03-22","CountryCode":"KZ","CountryName":"Kazakhstan","RegionCode":null,"RegionName":null,"Confirmed":"56","Deaths":"0","Latitude":"48.019573","Longitude":"66.923684","Population":"18551427"},{"Date":"2020-03-22","CountryCode":"LB","CountryName":"Lebanon","RegionCode":null,"RegionName":null,"Confirmed":"230","Deaths":"4","Latitude":"33.854721","Longitude":"35.862285","Population":"6855713"},{"Date":"2020-03-22","CountryCode":"LC","CountryName":"Saint Lucia","RegionCode":null,"RegionName":null,"Confirmed":"2","Deaths":"0","Latitude":"13.909444","Longitude":"-60.978893","Population":"182790"},{"Date":"2020-03-22","CountryCode":"LI","CountryName":"Liechtenstein","RegionCode":null,"RegionName":null,"Confirmed":"36","Deaths":"0","Latitude":"47.166","Longitude":"9.555373","Population":"38019"},{"Date":"2020-03-22","CountryCode":"LK","CountryName":"Sri Lanka","RegionCode":null,"RegionName":null,"Confirmed":"78","Deaths":"0","Latitude":"7.873054","Longitude":"80.771797","Population":"21323733"},{"Date":"2020-03-22","CountryCode":"LR","CountryName":"Liberia","RegionCode":null,"RegionName":null,"Confirmed":"3","Deaths":"0","Latitude":"6.428055","Longitude":"-9.429499","Population":"4937374"},{"Date":"2020-03-22","CountryCode":"LT","CountryName":"Lithuania","RegionCode":null,"RegionName":null,"Confirmed":"105","Deaths":"1","Latitude":"55.169438","Longitude":"23.881275","Population":"2759627"},{"Date":"2020-03-22","CountryCode":"LU","CountryName":"Luxembourg","RegionCode":null,"RegionName":null,"Confirmed":"670","Deaths":"8","Latitude":"49.815273","Longitude":"6.129583","Population":"615729"},{"Date":"2020-03-22","CountryCode":"LV","CountryName":"Latvia","RegionCode":null,"RegionName":null,"Confirmed":"124","Deaths":"0","Latitude":"56.879635","Longitude":"24.603189","Population":"1906743"},{"Date":"2020-03-22","CountryCode":"MA","CountryName":"Morocco","RegionCode":null,"RegionName":null,"Confirmed":"96","Deaths":"3","Latitude":"31.791702","Longitude":"-7.09262","Population":"36471769"},{"Date":"2020-03-22","CountryCode":"MC","CountryName":"Monaco","RegionCode":null,"RegionName":null,"Confirmed":"18","Deaths":"0","Latitude":"43.750298","Longitude":"7.412841","Population":"38964"},{"Date":"2020-03-22","CountryCode":"MD","CountryName":"Moldova","RegionCode":null,"RegionName":null,"Confirmed":"80","Deaths":"1","Latitude":"47.411631","Longitude":"28.369885","Population":"4043263"},{"Date":"2020-03-22","CountryCode":"ME","CountryName":"Montenegro","RegionCode":null,"RegionName":null,"Confirmed":"14","Deaths":"0","Latitude":"42.708678","Longitude":"19.37439","Population":"627987"},{"Date":"2020-03-22","CountryCode":"MG","CountryName":"Madagascar","RegionCode":null,"RegionName":null,"Confirmed":"3","Deaths":"0","Latitude":"-18.766947","Longitude":"46.869107","Population":"26969307"},{"Date":"2020-03-22","CountryCode":"MK","CountryName":"Macedonia","RegionCode":null,"RegionName":null,"Confirmed":"85","Deaths":"0","Latitude":"41.608635","Longitude":"21.745275","Population":"2083459"},{"Date":"2020-03-22","CountryCode":"MN","CountryName":"Mongolia","RegionCode":null,"RegionName":null,"Confirmed":"10","Deaths":"0","Latitude":"46.862496","Longitude":"103.846656","Population":"3225167"},{"Date":"2020-03-22","CountryCode":"MR","CountryName":"Mauritania","RegionCode":null,"RegionName":null,"Confirmed":"2","Deaths":"0","Latitude":"21.00789","Longitude":"-10.940835","Population":"4525696"},{"Date":"2020-03-22","CountryCode":"MS","CountryName":"Montserrat","RegionCode":null,"RegionName":null,"Confirmed":"1","Deaths":"0","Latitude":"16.742498","Longitude":"-62.187366","Population":"4989"},{"Date":"2020-03-22","CountryCode":"MT","CountryName":"Malta","RegionCode":null,"RegionName":null,"Confirmed":"73","Deaths":"0","Latitude":"35.937496","Longitude":"14.375416","Population":"440372"},{"Date":"2020-03-22","CountryCode":"MU","CountryName":"Mauritius","RegionCode":null,"RegionName":null,"Confirmed":"14","Deaths":"1","Latitude":"-20.348404","Longitude":"57.552152","Population":"1198575"},{"Date":"2020-03-22","CountryCode":"MV","CountryName":"Maldives","RegionCode":null,"RegionName":null,"Confirmed":"13","Deaths":"0","Latitude":"3.202778","Longitude":"73.22068","Population":"530953"},{"Date":"2020-03-22","CountryCode":"MX","CountryName":"Mexico","RegionCode":null,"RegionName":null,"Confirmed":"251","Deaths":"2","Latitude":"23.634501","Longitude":"-102.552784","Population":"127575529"},{"Date":"2020-03-22","CountryCode":"MY","CountryName":"Malaysia","RegionCode":null,"RegionName":null,"Confirmed":"1183","Deaths":"4","Latitude":"4.210484","Longitude":"101.975766","Population":"31949777"},{"Date":"2020-03-22","CountryCode":"NC","CountryName":"New Caledonia","RegionCode":null,"RegionName":null,"Confirmed":"4","Deaths":"0","Latitude":"-20.904305","Longitude":"165.618042","Population":"282750"},{"Date":"2020-03-22","CountryCode":"NE","CountryName":"Niger","RegionCode":null,"RegionName":null,"Confirmed":"1","Deaths":"0","Latitude":"17.607789","Longitude":"8.081666","Population":"23310715"},{"Date":"2020-03-22","CountryCode":"NG","CountryName":"Nigeria","RegionCode":null,"RegionName":null,"Confirmed":"22","Deaths":"0","Latitude":"9.081999","Longitude":"8.675277","Population":"200963599"},{"Date":"2020-03-22","CountryCode":"NI","CountryName":"Nicaragua","RegionCode":null,"RegionName":null,"Confirmed":"1","Deaths":"0","Latitude":"12.865416","Longitude":"-85.207229","Population":"6545502"},{"Date":"2020-03-22","CountryCode":"NL","CountryName":"Netherlands","RegionCode":null,"RegionName":null,"Confirmed":"3631","Deaths":"136","Latitude":"52.132633","Longitude":"5.291266","Population":"17097130"},{"Date":"2020-03-22","CountryCode":"NO","CountryName":"Norway","RegionCode":null,"RegionName":null,"Confirmed":"1926","Deaths":"7","Latitude":"60.472024","Longitude":"8.468946","Population":"5378857"},{"Date":"2020-03-22","CountryCode":"NP","CountryName":"Nepal","RegionCode":null,"RegionName":null,"Confirmed":"1","Deaths":"0","Latitude":"28.394857","Longitude":"84.124008","Population":"28608710"},{"Date":"2020-03-22","CountryCode":"NZ","CountryName":"New Zealand","RegionCode":null,"RegionName":null,"Confirmed":"66","Deaths":"0","Latitude":"-40.900557","Longitude":"174.885971","Population":"4783063"},{"Date":"2020-03-22","CountryCode":"OM","CountryName":"Oman","RegionCode":null,"RegionName":null,"Confirmed":"52","Deaths":"0","Latitude":"21.512583","Longitude":"55.923255","Population":"4974986"},{"Date":"2020-03-22","CountryCode":"PA","CountryName":"Panama","RegionCode":null,"RegionName":null,"Confirmed":"245","Deaths":"3","Latitude":"8.537981","Longitude":"-80.782127","Population":"4246439"},{"Date":"2020-03-22","CountryCode":"PE","CountryName":"Peru","RegionCode":null,"RegionName":null,"Confirmed":"318","Deaths":"5","Latitude":"-9.189967","Longitude":"-75.015152","Population":"32510453"},{"Date":"2020-03-22","CountryCode":"PG","CountryName":"Papua New Guinea","RegionCode":null,"RegionName":null,"Confirmed":"1","Deaths":"0","Latitude":"-6.314993","Longitude":"143.95555","Population":"8776109"},{"Date":"2020-03-22","CountryCode":"PH","CountryName":"Philippines","RegionCode":null,"RegionName":null,"Confirmed":"380","Deaths":"25","Latitude":"12.879721","Longitude":"121.774017","Population":"108116615"},{"Date":"2020-03-22","CountryCode":"PK","CountryName":"Pakistan","RegionCode":null,"RegionName":null,"Confirmed":"646","Deaths":"3","Latitude":"30.375321","Longitude":"69.345116","Population":"216565318"},{"Date":"2020-03-22","CountryCode":"PL","CountryName":"Poland","RegionCode":null,"RegionName":null,"Confirmed":"536","Deaths":"5","Latitude":"51.919438","Longitude":"19.145136","Population":"37887768"},{"Date":"2020-03-22","CountryCode":"PS","CountryName":"Palestine","RegionCode":null,"RegionName":null,"Confirmed":"52","Deaths":"0","Latitude":"31.952162","Longitude":"35.233154","Population":"4981420"},{"Date":"2020-03-22","CountryCode":"PT","CountryName":"Portugal","RegionCode":null,"RegionName":null,"Confirmed":"1280","Deaths":"12","Latitude":"39.399872","Longitude":"-8.224454","Population":"10226187"},{"Date":"2020-03-22","CountryCode":"PY","CountryName":"Paraguay","RegionCode":null,"RegionName":null,"Confirmed":"22","Deaths":"1","Latitude":"-23.442503","Longitude":"-58.443832","Population":"7044636"},{"Date":"2020-03-22","CountryCode":"QA","CountryName":"Qatar","RegionCode":null,"RegionName":null,"Confirmed":"481","Deaths":"0","Latitude":"25.354826","Longitude":"51.183884","Population":"2832067"},{"Date":"2020-03-22","CountryCode":"RO","CountryName":"Romania","RegionCode":null,"RegionName":null,"Confirmed":"367","Deaths":"0","Latitude":"45.943161","Longitude":"24.96676","Population":"19364557"},{"Date":"2020-03-22","CountryCode":"RS","CountryName":"Serbia","RegionCode":null,"RegionName":null,"Confirmed":"149","Deaths":"1","Latitude":"44.016521","Longitude":"21.005859","Population":"8772235"},{"Date":"2020-03-22","CountryCode":"RU","CountryName":"Russia","RegionCode":null,"RegionName":null,"Confirmed":"306","Deaths":"0","Latitude":"61.52401","Longitude":"105.318756","Population":"145872256"},{"Date":"2020-03-22","CountryCode":"RW","CountryName":"Rwanda","RegionCode":null,"RegionName":null,"Confirmed":"17","Deaths":"0","Latitude":"-1.940278","Longitude":"29.873888","Population":"12626950"},{"Date":"2020-03-22","CountryCode":"SA","CountryName":"Saudi Arabia","RegionCode":null,"RegionName":null,"Confirmed":"392","Deaths":"0","Latitude":"23.885942","Longitude":"45.079162","Population":"34268528"},{"Date":"2020-03-22","CountryCode":"SC","CountryName":"Seychelles","RegionCode":null,"RegionName":null,"Confirmed":"7","Deaths":"0","Latitude":"-4.679574","Longitude":"55.491977","Population":"97739"},{"Date":"2020-03-22","CountryCode":"SD","CountryName":"Sudan","RegionCode":null,"RegionName":null,"Confirmed":"2","Deaths":"1","Latitude":"12.862807","Longitude":"30.217636","Population":"42813238"},{"Date":"2020-03-22","CountryCode":"SE","CountryName":"Sweden","RegionCode":null,"RegionName":null,"Confirmed":"1746","Deaths":"20","Latitude":"60.128161","Longitude":"18.643501","Population":"10036379"},{"Date":"2020-03-22","CountryCode":"SG","CountryName":"Singapore","RegionCode":null,"RegionName":null,"Confirmed":"432","Deaths":"2","Latitude":"1.352083","Longitude":"103.819836","Population":"5804337"},{"Date":"2020-03-22","CountryCode":"SI","CountryName":"Slovenia","RegionCode":null,"RegionName":null,"Confirmed":"383","Deaths":"1","Latitude":"46.151241","Longitude":"14.995463","Population":"2078654"},{"Date":"2020-03-22","CountryCode":"SK","CountryName":"Slovakia","RegionCode":null,"RegionName":null,"Confirmed":"178","Deaths":"0","Latitude":"48.669026","Longitude":"19.699024","Population":"5457013"},{"Date":"2020-03-22","CountryCode":"SM","CountryName":"San Marino","RegionCode":null,"RegionName":null,"Confirmed":"151","Deaths":"20","Latitude":"43.94236","Longitude":"12.457777","Population":"33860"},{"Date":"2020-03-22","CountryCode":"SN","CountryName":"Senegal","RegionCode":null,"RegionName":null,"Confirmed":"56","Deaths":"0","Latitude":"14.497401","Longitude":"-14.452362","Population":"16296364"},{"Date":"2020-03-22","CountryCode":"SO","CountryName":"Somalia","RegionCode":null,"RegionName":null,"Confirmed":"1","Deaths":"0","Latitude":"5.152149","Longitude":"46.199616","Population":"15442905"},{"Date":"2020-03-22","CountryCode":"SR","CountryName":"Suriname","RegionCode":null,"RegionName":null,"Confirmed":"5","Deaths":"0","Latitude":"3.919305","Longitude":"-56.027783","Population":"581372"},{"Date":"2020-03-22","CountryCode":"SV","CountryName":"El Salvador","RegionCode":null,"RegionName":null,"Confirmed":"3","Deaths":"0","Latitude":"13.794185","Longitude":"-88.89653","Population":"6453553"},{"Date":"2020-03-22","CountryCode":"SZ","CountryName":"Swaziland","RegionCode":null,"RegionName":null,"Confirmed":"1","Deaths":"0","Latitude":"-26.522503","Longitude":"31.465866","Population":"1148130"},{"Date":"2020-03-22","CountryCode":"TD","CountryName":"Chad","RegionCode":null,"RegionName":null,"Confirmed":"2","Deaths":"0","Latitude":"15.454166","Longitude":"18.732207","Population":"15946876"},{"Date":"2020-03-22","CountryCode":"TG","CountryName":"Togo","RegionCode":null,"RegionName":null,"Confirmed":"15","Deaths":"0","Latitude":"8.619543","Longitude":"0.824782","Population":"8082366"},{"Date":"2020-03-22","CountryCode":"TH","CountryName":"Thailand","RegionCode":null,"RegionName":null,"Confirmed":"599","Deaths":"1","Latitude":"15.870032","Longitude":"100.992541","Population":"69037513"},{"Date":"2020-03-22","CountryCode":"TL","CountryName":"East Timor","RegionCode":null,"RegionName":null,"Confirmed":"1","Deaths":"0","Latitude":"-8.874217","Longitude":"125.727539","Population":"1293119"},{"Date":"2020-03-22","CountryCode":"TN","CountryName":"Tunisia","RegionCode":null,"RegionName":null,"Confirmed":"60","Deaths":"1","Latitude":"33.886917","Longitude":"9.537499","Population":"11694719"},{"Date":"2020-03-22","CountryCode":"TR","CountryName":"Turkey","RegionCode":null,"RegionName":null,"Confirmed":"947","Deaths":"21","Latitude":"38.963745","Longitude":"35.243322","Population":"83429615"},{"Date":"2020-03-22","CountryCode":"TT","CountryName":"Trinidad and Tobago","RegionCode":null,"RegionName":null,"Confirmed":"49","Deaths":"0","Latitude":"10.691803","Longitude":"-61.222503","Population":"1394973"},{"Date":"2020-03-22","CountryCode":"TW","CountryName":"Taiwan","RegionCode":null,"RegionName":null,"Confirmed":"153","Deaths":"2","Latitude":"23.69781","Longitude":"120.960515","Population":"23773876"},{"Date":"2020-03-22","CountryCode":"TZ","CountryName":"Tanzania","RegionCode":null,"RegionName":null,"Confirmed":"6","Deaths":"0","Latitude":"-6.369028","Longitude":"34.888822","Population":"58005463"},{"Date":"2020-03-22","CountryCode":"UA","CountryName":"Ukraine","RegionCode":null,"RegionName":null,"Confirmed":"41","Deaths":"3","Latitude":"48.379433","Longitude":"31.16558","Population":"43993638"},{"Date":"2020-03-22","CountryCode":"UG","CountryName":"Uganda","RegionCode":null,"RegionName":null,"Confirmed":"1","Deaths":"0","Latitude":"1.373333","Longitude":"32.290275","Population":"44269594"},{"Date":"2020-03-22","CountryCode":"US","CountryName":"United States of America","RegionCode":"AK","RegionName":"Alaska","Confirmed":"22","Deaths":null,"Latitude":"61.3707","Longitude":"-152.4044","Population":null},{"Date":"2020-03-22","CountryCode":"US","CountryName":"United States of America","RegionCode":"AL","RegionName":"Alabama","Confirmed":"138","Deaths":"0","Latitude":"32.3182","Longitude":"-86.9023","Population":null},{"Date":"2020-03-22","CountryCode":"US","CountryName":"United States of America","RegionCode":"AR","RegionName":"Arkansas","Confirmed":"165","Deaths":"0","Latitude":"34.9697","Longitude":"-92.3731","Population":null},{"Date":"2020-03-22","CountryCode":"US","CountryName":"United States of America","RegionCode":"AZ","RegionName":"Arizona","Confirmed":"152","Deaths":"2","Latitude":"33.7298","Longitude":"-111.4312","Population":null},{"Date":"2020-03-22","CountryCode":"US","CountryName":"United States of America","RegionCode":"CA","RegionName":"California","Confirmed":"1536","Deaths":"27","Latitude":"36.1162","Longitude":"-119.6816","Population":null},{"Date":"2020-03-22","CountryCode":"US","CountryName":"United States of America","RegionCode":"CO","RegionName":"Colorado","Confirmed":"475","Deaths":"5","Latitude":"39.0598","Longitude":"-105.3111","Population":null},{"Date":"2020-03-22","CountryCode":"US","CountryName":"United States of America","RegionCode":"CT","RegionName":"Connecticut","Confirmed":"223","Deaths":"5","Latitude":"41.5978","Longitude":"-72.7554","Population":null},{"Date":"2020-03-22","CountryCode":"US","CountryName":"United States of America","RegionCode":"DC","RegionName":"District of Columbia","Confirmed":"98","Deaths":"1","Latitude":"38.8974","Longitude":"-77.0268","Population":null},{"Date":"2020-03-22","CountryCode":"US","CountryName":"United States of America","RegionCode":"DE","RegionName":"Delaware","Confirmed":"56","Deaths":"0","Latitude":"39.3185","Longitude":"-75.5071","Population":null},{"Date":"2020-03-22","CountryCode":"US","CountryName":"United States of America","RegionCode":"FL","RegionName":"Florida","Confirmed":"830","Deaths":"13","Latitude":"27.7663","Longitude":"-81.6868","Population":null},{"Date":"2020-03-22","CountryCode":"US","CountryName":"United States of America","RegionCode":"GA","RegionName":"Georgia","Confirmed":"600","Deaths":"23","Latitude":"33.0406","Longitude":"-83.6431","Population":null},{"Date":"2020-03-22","CountryCode":"US","CountryName":"United States of America","RegionCode":"HI","RegionName":"Hawaii","Confirmed":"48","Deaths":null,"Latitude":"21.0943","Longitude":"-157.4983","Population":null},{"Date":"2020-03-22","CountryCode":"US","CountryName":"United States of America","RegionCode":"IA","RegionName":"Iowa","Confirmed":"90","Deaths":null,"Latitude":"42.0115","Longitude":"-93.2105","Population":null},{"Date":"2020-03-22","CountryCode":"US","CountryName":"United States of America","RegionCode":"ID","RegionName":"Idaho","Confirmed":"42","Deaths":"0","Latitude":"44.2405","Longitude":"-114.4788","Population":null},{"Date":"2020-03-22","CountryCode":"US","CountryName":"United States of America","RegionCode":"IL","RegionName":"Illinois","Confirmed":"1058","Deaths":"9","Latitude":"40.3495","Longitude":"-88.9861","Population":null},{"Date":"2020-03-22","CountryCode":"US","CountryName":"United States of America","RegionCode":"IN","RegionName":"Indiana","Confirmed":"201","Deaths":"6","Latitude":"39.8494","Longitude":"-86.2583","Population":null},{"Date":"2020-03-22","CountryCode":"US","CountryName":"United States of America","RegionCode":"KS","RegionName":"Kansas","Confirmed":"64","Deaths":"2","Latitude":"38.5266","Longitude":"-96.7265","Population":null},{"Date":"2020-03-22","CountryCode":"US","CountryName":"United States of America","RegionCode":"KY","RegionName":"Kentucky","Confirmed":"99","Deaths":"3","Latitude":"37.6681","Longitude":"-84.6701","Population":null},{"Date":"2020-03-22","CountryCode":"US","CountryName":"United States of America","RegionCode":"LA","RegionName":"Louisiana","Confirmed":"837","Deaths":"20","Latitude":"31.1695","Longitude":"-91.8678","Population":null},{"Date":"2020-03-22","CountryCode":"US","CountryName":"United States of America","RegionCode":"MA","RegionName":"Massachusetts","Confirmed":"525","Deaths":"1","Latitude":"42.2302","Longitude":"-71.5301","Population":null},{"Date":"2020-03-22","CountryCode":"US","CountryName":"United States of America","RegionCode":"MD","RegionName":"Maryland","Confirmed":"244","Deaths":"3","Latitude":"39.0639","Longitude":"-76.8021","Population":null},{"Date":"2020-03-22","CountryCode":"US","CountryName":"United States of America","RegionCode":"ME","RegionName":"Maine","Confirmed":"89","Deaths":null,"Latitude":"44.6939","Longitude":"-69.3819","Population":null},{"Date":"2020-03-22","CountryCode":"US","CountryName":"United States of America","RegionCode":"MI","RegionName":"Michigan","Confirmed":"1035","Deaths":"8","Latitude":"43.3266","Longitude":"-84.5361","Population":null},{"Date":"2020-03-22","CountryCode":"US","CountryName":"United States of America","RegionCode":"MN","RegionName":"Minnesota","Confirmed":"169","Deaths":"1","Latitude":"44.8254","Longitude":"-93.7842","Population":null},{"Date":"2020-03-22","CountryCode":"US","CountryName":"United States of America","RegionCode":"MO","RegionName":"Missouri","Confirmed":"90","Deaths":"3","Latitude":"38.4561","Longitude":"-92.2884","Population":null},{"Date":"2020-03-22","CountryCode":"US","CountryName":"United States of America","RegionCode":"MS","RegionName":"Mississippi","Confirmed":"207","Deaths":"1","Latitude":"32.7416","Longitude":"-89.6787","Population":null},{"Date":"2020-03-22","CountryCode":"US","CountryName":"United States of America","RegionCode":"MT","RegionName":"Montana","Confirmed":"31","Deaths":null,"Latitude":"46.9219","Longitude":"-110.4544","Population":null},{"Date":"2020-03-22","CountryCode":"US","CountryName":"United States of America","RegionCode":"NC","RegionName":"North Carolina","Confirmed":"255","Deaths":"0","Latitude":"35.6301","Longitude":"-79.8064","Population":null},{"Date":"2020-03-22","CountryCode":"US","CountryName":"United States of America","RegionCode":"ND","RegionName":"North Dakota","Confirmed":"28","Deaths":"0","Latitude":"47.5289","Longitude":"-99.784","Population":null},{"Date":"2020-03-22","CountryCode":"US","CountryName":"United States of America","RegionCode":"NE","RegionName":"Nebraska","Confirmed":"48","Deaths":"0","Latitude":"41.3148","Longitude":"-96.1951","Population":null},{"Date":"2020-03-22","CountryCode":"US","CountryName":"United States of America","RegionCode":"NH","RegionName":"New Hampshire","Confirmed":"65","Deaths":null,"Latitude":"42.9931","Longitude":"-71.0498","Population":null},{"Date":"2020-03-22","CountryCode":"US","CountryName":"United States of America","RegionCode":"NJ","RegionName":"New Jersey","Confirmed":"1914","Deaths":"20","Latitude":"40.2989","Longitude":"-74.521","Population":null},{"Date":"2020-03-22","CountryCode":"US","CountryName":"United States of America","RegionCode":"NM","RegionName":"New Mexico","Confirmed":"57","Deaths":null,"Latitude":"34.8405","Longitude":"-106.2485","Population":null},{"Date":"2020-03-22","CountryCode":"US","CountryName":"United States of America","RegionCode":"NV","RegionName":"Nevada","Confirmed":"190","Deaths":"2","Latitude":"38.3135","Longitude":"-117.0554","Population":null},{"Date":"2020-03-22","CountryCode":"US","CountryName":"United States of America","RegionCode":"NY","RegionName":"New York","Confirmed":"15168","Deaths":"114","Latitude":"42.1657","Longitude":"-74.9481","Population":null},{"Date":"2020-03-22","CountryCode":"US","CountryName":"United States of America","RegionCode":"OH","RegionName":"Ohio","Confirmed":"351","Deaths":"3","Latitude":"40.3888","Longitude":"-82.7649","Population":null},{"Date":"2020-03-22","CountryCode":"US","CountryName":"United States of America","RegionCode":"OK","RegionName":"Oklahoma","Confirmed":"67","Deaths":"2","Latitude":"35.5653","Longitude":"-96.9289","Population":null},{"Date":"2020-03-22","CountryCode":"US","CountryName":"United States of America","RegionCode":"OR","RegionName":"Oregon","Confirmed":"161","Deaths":"4","Latitude":"43.1261","Longitude":"-123.2492","Population":null},{"Date":"2020-03-22","CountryCode":"US","CountryName":"United States of America","RegionCode":"PA","RegionName":"Pennsylvania","Confirmed":"479","Deaths":"2","Latitude":"40.5908","Longitude":"-77.2098","Population":null},{"Date":"2020-03-22","CountryCode":"US","CountryName":"United States of America","RegionCode":"RI","RegionName":"Rhode Island","Confirmed":"83","Deaths":null,"Latitude":"41.8882","Longitude":"-71.4774","Population":null},{"Date":"2020-03-22","CountryCode":"US","CountryName":"United States of America","RegionCode":"SC","RegionName":"South Caroline","Confirmed":"195","Deaths":"3","Latitude":"33.8569","Longitude":"-80.945","Population":null},{"Date":"2020-03-22","CountryCode":"US","CountryName":"United States of America","RegionCode":"SD","RegionName":"South Dakota","Confirmed":"21","Deaths":"1","Latitude":"43.8901","Longitude":"-102.2548","Population":null},{"Date":"2020-03-22","CountryCode":"US","CountryName":"United States of America","RegionCode":"TN","RegionName":"Tennessee","Confirmed":"505","Deaths":null,"Latitude":"35.7478","Longitude":"-86.6923","Population":null},{"Date":"2020-03-22","CountryCode":"US","CountryName":"United States of America","RegionCode":"TX","RegionName":"Texas","Confirmed":"334","Deaths":"5","Latitude":"31.0545","Longitude":"-97.5635","Population":null},{"Date":"2020-03-22","CountryCode":"US","CountryName":"United States of America","RegionCode":"UT","RegionName":"Utah","Confirmed":"181","Deaths":"1","Latitude":"40.15","Longitude":"-111.8624","Population":null},{"Date":"2020-03-22","CountryCode":"US","CountryName":"United States of America","RegionCode":"VA","RegionName":"Virginia","Confirmed":"219","Deaths":"3","Latitude":"37.7693","Longitude":"-78.17","Population":null},{"Date":"2020-03-22","CountryCode":"US","CountryName":"United States of America","RegionCode":"VT","RegionName":"Vermont","Confirmed":"52","Deaths":"2","Latitude":"44.0459","Longitude":"-72.7107","Population":null},{"Date":"2020-03-22","CountryCode":"US","CountryName":"United States of America","RegionCode":"WA","RegionName":"Washington","Confirmed":"1793","Deaths":"94","Latitude":"47.4009","Longitude":"-121.4905","Population":null},{"Date":"2020-03-22","CountryCode":"US","CountryName":"United States of America","RegionCode":"WI","RegionName":"Wisconsin","Confirmed":"385","Deaths":"4","Latitude":"43.0186","Longitude":"-89.5498","Population":null},{"Date":"2020-03-22","CountryCode":"US","CountryName":"United States of America","RegionCode":"WV","RegionName":"West Virginia","Confirmed":"12","Deaths":"0","Latitude":"38.4912","Longitude":"-80.9545","Population":null},{"Date":"2020-03-22","CountryCode":"US","CountryName":"United States of America","RegionCode":"WY","RegionName":"Wyoming","Confirmed":"24","Deaths":null,"Latitude":"42.756","Longitude":"-107.3025","Population":null},{"Date":"2020-03-22","CountryCode":"US","CountryName":"United States of America","RegionCode":null,"RegionName":null,"Confirmed":"26747","Deaths":"340","Latitude":"37.09024","Longitude":"-95.712891","Population":"329064917"},{"Date":"2020-03-22","CountryCode":"UY","CountryName":"Uruguay","RegionCode":null,"RegionName":null,"Confirmed":"135","Deaths":"0","Latitude":"-32.522779","Longitude":"-55.765835","Population":"3461734"},{"Date":"2020-03-22","CountryCode":"UZ","CountryName":"Uzbekistan","RegionCode":null,"RegionName":null,"Confirmed":"33","Deaths":"0","Latitude":"41.377491","Longitude":"64.585262","Population":"32981716"},{"Date":"2020-03-22","CountryCode":"VA","CountryName":"Vatican City","RegionCode":null,"RegionName":null,"Confirmed":"1","Deaths":"0","Latitude":"41.902916","Longitude":"12.453389","Population":"799"},{"Date":"2020-03-22","CountryCode":"VE","CountryName":"Venezuela","RegionCode":null,"RegionName":null,"Confirmed":"36","Deaths":"0","Latitude":"6.42375","Longitude":"-66.58973","Population":"28515829"},{"Date":"2020-03-22","CountryCode":"VN","CountryName":"Vietnam","RegionCode":null,"RegionName":null,"Confirmed":"94","Deaths":"0","Latitude":"14.058324","Longitude":"108.277199","Population":"96462106"},{"Date":"2020-03-22","CountryCode":"XK","CountryName":"Kosovo","RegionCode":null,"RegionName":null,"Confirmed":"24","Deaths":"0","Latitude":"42.602636","Longitude":"20.902977","Population":null},{"Date":"2020-03-22","CountryCode":"ZA","CountryName":"South Africa","RegionCode":null,"RegionName":null,"Confirmed":"240","Deaths":"0","Latitude":"-30.559482","Longitude":"22.937506","Population":"58558270"},{"Date":"2020-03-22","CountryCode":"ZM","CountryName":"Zambia","RegionCode":null,"RegionName":null,"Confirmed":"2","Deaths":"0","Latitude":"-13.133897","Longitude":"27.849332","Population":"17861030"},{"Date":"2020-03-22","CountryCode":"ZW","CountryName":"Zimbabwe","RegionCode":null,"RegionName":null,"Confirmed":"2","Deaths":"0","Latitude":"-19.015438","Longitude":"29.154857","Population":"14645468"},{"Date":"2020-03-23","CountryCode":"CN","CountryName":"China","RegionCode":"CQ","RegionName":"Chongqing","Confirmed":"577","Deaths":"6","Latitude":"30.0572","Longitude":"107.874","Population":null},{"Date":"2020-03-23","CountryCode":"CN","CountryName":"China","RegionCode":"GS","RegionName":"Gansu","Confirmed":"136","Deaths":"2","Latitude":"37.8099","Longitude":"101.0583","Population":null},{"Date":"2020-03-23","CountryCode":"CN","CountryName":"China","RegionCode":"MO","RegionName":"Macau","Confirmed":"20","Deaths":"0","Latitude":"22.1667","Longitude":"113.55","Population":null},{"Date":"2020-03-23","CountryCode":"ES","CountryName":"Spain","RegionCode":null,"RegionName":null,"Confirmed":"28572","Deaths":"1720","Latitude":"40.463667","Longitude":"-3.74922","Population":"46736776"},{"Date":"2020-03-23","CountryCode":"IT","CountryName":"Italy","RegionCode":null,"RegionName":null,"Confirmed":"59138","Deaths":"5476","Latitude":"41.87194","Longitude":"12.56738","Population":"60550075"}]