[{"Date":"2019-12-31","CountryCode":"AE","CountryName":"United Arab Emirates","Confirmed":"0","Deaths":"0","Latitude":"23.424076","Longitude":"53.847818","Population":"9770529"},{"Date":"2019-12-31","CountryCode":"AF","CountryName":"Afghanistan","Confirmed":"0","Deaths":"0","Latitude":"33.93911","Longitude":"67.709953","Population":"38041754"},{"Date":"2019-12-31","CountryCode":"AM","CountryName":"Armenia","Confirmed":"0","Deaths":"0","Latitude":"40.069099","Longitude":"45.038189","Population":"2957731"},{"Date":"2019-12-31","CountryCode":"AT","CountryName":"Austria","Confirmed":"0","Deaths":"0","Latitude":"47.516231","Longitude":"14.550072","Population":"8955102"},{"Date":"2019-12-31","CountryCode":"AU","CountryName":"Australia","Confirmed":"0","Deaths":"0","Latitude":"-25.274398","Longitude":"133.775136","Population":"25203198"},{"Date":"2019-12-31","CountryCode":"AZ","CountryName":"Azerbaijan","Confirmed":"0","Deaths":"0","Latitude":"40.143105","Longitude":"47.576927","Population":"10047718"},{"Date":"2019-12-31","CountryCode":"BE","CountryName":"Belgium","Confirmed":"0","Deaths":"0","Latitude":"50.503887","Longitude":"4.469936","Population":"11539328"},{"Date":"2019-12-31","CountryCode":"BH","CountryName":"Bahrain","Confirmed":"0","Deaths":"0","Latitude":"25.930414","Longitude":"50.637772","Population":"1641172"},{"Date":"2019-12-31","CountryCode":"BR","CountryName":"Brazil","Confirmed":"0","Deaths":"0","Latitude":"-14.235004","Longitude":"-51.92528","Population":"211049527"},{"Date":"2019-12-31","CountryCode":"BY","CountryName":"Belarus","Confirmed":"0","Deaths":"0","Latitude":"53.709807","Longitude":"27.953389","Population":"9452411"},{"Date":"2019-12-31","CountryCode":"CA","CountryName":"Canada","Confirmed":"0","Deaths":"0","Latitude":"56.130366","Longitude":"-106.346771","Population":"37411047"},{"Date":"2019-12-31","CountryCode":"CH","CountryName":"Switzerland","Confirmed":"0","Deaths":"0","Latitude":"46.818188","Longitude":"8.227512","Population":"8591365"},{"Date":"2019-12-31","CountryCode":"CN","CountryName":"China","Confirmed":"27","Deaths":"0","Latitude":"35.86166","Longitude":"104.195397","Population":"1433783686"},{"Date":"2019-12-31","CountryCode":"CZ","CountryName":"Czech Republic","Confirmed":"0","Deaths":"0","Latitude":"49.817492","Longitude":"15.472962","Population":"10689209"},{"Date":"2019-12-31","CountryCode":"DE","CountryName":"Germany","Confirmed":"0","Deaths":"0","Latitude":"51.165691","Longitude":"10.451526","Population":"83517045"},{"Date":"2019-12-31","CountryCode":"DK","CountryName":"Denmark","Confirmed":"0","Deaths":"0","Latitude":"56.26392","Longitude":"9.501785","Population":"5771876"},{"Date":"2019-12-31","CountryCode":"DO","CountryName":"Dominican Republic","Confirmed":"0","Deaths":"0","Latitude":"18.735693","Longitude":"-70.162651","Population":"10738958"},{"Date":"2019-12-31","CountryCode":"DZ","CountryName":"Algeria","Confirmed":"0","Deaths":"0","Latitude":"28.033886","Longitude":"1.659626","Population":"43053054"},{"Date":"2019-12-31","CountryCode":"EC","CountryName":"Ecuador","Confirmed":"0","Deaths":"0","Latitude":"-1.831239","Longitude":"-78.183406","Population":"17373662"},{"Date":"2019-12-31","CountryCode":"EE","CountryName":"Estonia","Confirmed":"0","Deaths":"0","Latitude":"58.595272","Longitude":"25.013607","Population":"1325648"},{"Date":"2019-12-31","CountryCode":"EG","CountryName":"Egypt","Confirmed":"0","Deaths":"0","Latitude":"26.820553","Longitude":"30.802498","Population":"100388073"},{"Date":"2019-12-31","CountryCode":"FI","CountryName":"Finland","Confirmed":"0","Deaths":"0","Latitude":"61.92411","Longitude":"25.748151","Population":"5532156"},{"Date":"2019-12-31","CountryCode":"FR","CountryName":"France","Confirmed":"0","Deaths":"0","Latitude":"46.227638","Longitude":"2.213749","Population":"65129728"},{"Date":"2019-12-31","CountryCode":"GB","CountryName":"United Kingdom","Confirmed":"0","Deaths":"0","Latitude":"55.378051","Longitude":"-3.435973","Population":"67530172"},{"Date":"2019-12-31","CountryCode":"GE","CountryName":"Georgia","Confirmed":"0","Deaths":"0","Latitude":"42.315407","Longitude":"43.356892","Population":"3996765"},{"Date":"2019-12-31","CountryCode":"GR","CountryName":"Greece","Confirmed":"0","Deaths":"0","Latitude":"39.074208","Longitude":"21.824312","Population":"10473455"},{"Date":"2019-12-31","CountryCode":"HR","CountryName":"Croatia","Confirmed":"0","Deaths":"0","Latitude":"45.1","Longitude":"15.2","Population":"4130304"},{"Date":"2019-12-31","CountryCode":"ID","CountryName":"Indonesia","Confirmed":"0","Deaths":"0","Latitude":"-0.789275","Longitude":"113.921327","Population":"270625568"},{"Date":"2019-12-31","CountryCode":"IE","CountryName":"Ireland","Confirmed":"0","Deaths":"0","Latitude":"53.41291","Longitude":"-8.24389","Population":"4882495"},{"Date":"2019-12-31","CountryCode":"IL","CountryName":"Israel","Confirmed":"0","Deaths":"0","Latitude":"31.046051","Longitude":"34.851612","Population":"8519377"},{"Date":"2019-12-31","CountryCode":"IN","CountryName":"India","Confirmed":"0","Deaths":"0","Latitude":"20.593684","Longitude":"78.96288","Population":"1366417754"},{"Date":"2019-12-31","CountryCode":"IQ","CountryName":"Iraq","Confirmed":"0","Deaths":"0","Latitude":"33.223191","Longitude":"43.679291","Population":"39309783"},{"Date":"2019-12-31","CountryCode":"IR","CountryName":"Iran","Confirmed":"0","Deaths":"0","Latitude":"32.427908","Longitude":"53.688046","Population":"82913906"},{"Date":"2019-12-31","CountryCode":"IS","CountryName":"Iceland","Confirmed":"0","Deaths":"0","Latitude":"64.963051","Longitude":"-19.020835","Population":"339031"},{"Date":"2019-12-31","CountryCode":"JP","CountryName":"Japan","Confirmed":"0","Deaths":"0","Latitude":"36.204824","Longitude":"138.252924","Population":"126860301"},{"Date":"2019-12-31","CountryCode":"KH","CountryName":"Cambodia","Confirmed":"0","Deaths":"0","Latitude":"12.565679","Longitude":"104.990963","Population":"16486542"},{"Date":"2019-12-31","CountryCode":"KR","CountryName":"South Korea","Confirmed":"0","Deaths":"0","Latitude":"35.907757","Longitude":"127.766922","Population":"51225308"},{"Date":"2019-12-31","CountryCode":"KW","CountryName":"Kuwait","Confirmed":"0","Deaths":"0","Latitude":"29.31166","Longitude":"47.481766","Population":"4207083"},{"Date":"2019-12-31","CountryCode":"LB","CountryName":"Lebanon","Confirmed":"0","Deaths":"0","Latitude":"33.854721","Longitude":"35.862285","Population":"6855713"},{"Date":"2019-12-31","CountryCode":"LK","CountryName":"Sri Lanka","Confirmed":"0","Deaths":"0","Latitude":"7.873054","Longitude":"80.771797","Population":"21323733"},{"Date":"2019-12-31","CountryCode":"LT","CountryName":"Lithuania","Confirmed":"0","Deaths":"0","Latitude":"55.169438","Longitude":"23.881275","Population":"2759627"},{"Date":"2019-12-31","CountryCode":"LU","CountryName":"Luxembourg","Confirmed":"0","Deaths":"0","Latitude":"49.815273","Longitude":"6.129583","Population":"615729"},{"Date":"2019-12-31","CountryCode":"MC","CountryName":"Monaco","Confirmed":"0","Deaths":"0","Latitude":"43.750298","Longitude":"7.412841","Population":"38964"},{"Date":"2019-12-31","CountryCode":"MK","CountryName":"Macedonia","Confirmed":"0","Deaths":"0","Latitude":"41.608635","Longitude":"21.745275","Population":"2083459"},{"Date":"2019-12-31","CountryCode":"MX","CountryName":"Mexico","Confirmed":"0","Deaths":"0","Latitude":"23.634501","Longitude":"-102.552784","Population":"127575529"},{"Date":"2019-12-31","CountryCode":"MY","CountryName":"Malaysia","Confirmed":"0","Deaths":"0","Latitude":"4.210484","Longitude":"101.975766","Population":"31949777"},{"Date":"2019-12-31","CountryCode":"NG","CountryName":"Nigeria","Confirmed":"0","Deaths":"0","Latitude":"9.081999","Longitude":"8.675277","Population":"200963599"},{"Date":"2019-12-31","CountryCode":"NL","CountryName":"Netherlands","Confirmed":"0","Deaths":"0","Latitude":"52.132633","Longitude":"5.291266","Population":"17097130"},{"Date":"2019-12-31","CountryCode":"NO","CountryName":"Norway","Confirmed":"0","Deaths":"0","Latitude":"60.472024","Longitude":"8.468946","Population":"5378857"},{"Date":"2019-12-31","CountryCode":"NP","CountryName":"Nepal","Confirmed":"0","Deaths":"0","Latitude":"28.394857","Longitude":"84.124008","Population":"28608710"},{"Date":"2019-12-31","CountryCode":"NZ","CountryName":"New Zealand","Confirmed":"0","Deaths":"0","Latitude":"-40.900557","Longitude":"174.885971","Population":"4783063"},{"Date":"2019-12-31","CountryCode":"OM","CountryName":"Oman","Confirmed":"0","Deaths":"0","Latitude":"21.512583","Longitude":"55.923255","Population":"4974986"},{"Date":"2019-12-31","CountryCode":"PH","CountryName":"Philippines","Confirmed":"0","Deaths":"0","Latitude":"12.879721","Longitude":"121.774017","Population":"108116615"},{"Date":"2019-12-31","CountryCode":"PK","CountryName":"Pakistan","Confirmed":"0","Deaths":"0","Latitude":"30.375321","Longitude":"69.345116","Population":"216565318"},{"Date":"2019-12-31","CountryCode":"QA","CountryName":"Qatar","Confirmed":"0","Deaths":"0","Latitude":"25.354826","Longitude":"51.183884","Population":"2832067"},{"Date":"2019-12-31","CountryCode":"RO","CountryName":"Romania","Confirmed":"0","Deaths":"0","Latitude":"45.943161","Longitude":"24.96676","Population":"19364557"},{"Date":"2019-12-31","CountryCode":"RU","CountryName":"Russia","Confirmed":"0","Deaths":"0","Latitude":"61.52401","Longitude":"105.318756","Population":"145872256"},{"Date":"2019-12-31","CountryCode":"SE","CountryName":"Sweden","Confirmed":"0","Deaths":"0","Latitude":"60.128161","Longitude":"18.643501","Population":"10036379"},{"Date":"2019-12-31","CountryCode":"SG","CountryName":"Singapore","Confirmed":"0","Deaths":"0","Latitude":"1.352083","Longitude":"103.819836","Population":"5804337"},{"Date":"2019-12-31","CountryCode":"SM","CountryName":"San Marino","Confirmed":"0","Deaths":"0","Latitude":"43.94236","Longitude":"12.457777","Population":"33860"},{"Date":"2019-12-31","CountryCode":"TH","CountryName":"Thailand","Confirmed":"0","Deaths":"0","Latitude":"15.870032","Longitude":"100.992541","Population":"69037513"},{"Date":"2019-12-31","CountryCode":"TW","CountryName":"Taiwan","Confirmed":"0","Deaths":"0","Latitude":"23.69781","Longitude":"120.960515","Population":"23773876"},{"Date":"2019-12-31","CountryCode":"US","CountryName":"United States of America","Confirmed":"0","Deaths":"0","Latitude":"37.09024","Longitude":"-95.712891","Population":"329064917"},{"Date":"2019-12-31","CountryCode":"VN","CountryName":"Vietnam","Confirmed":"0","Deaths":"0","Latitude":"14.058324","Longitude":"108.277199","Population":"96462106"},{"Date":"2020-01-01","CountryCode":"AE","CountryName":"United Arab Emirates","Confirmed":"0","Deaths":"0","Latitude":"23.424076","Longitude":"53.847818","Population":"9770529"},{"Date":"2020-01-01","CountryCode":"AF","CountryName":"Afghanistan","Confirmed":"0","Deaths":"0","Latitude":"33.93911","Longitude":"67.709953","Population":"38041754"},{"Date":"2020-01-01","CountryCode":"AM","CountryName":"Armenia","Confirmed":"0","Deaths":"0","Latitude":"40.069099","Longitude":"45.038189","Population":"2957731"},{"Date":"2020-01-01","CountryCode":"AT","CountryName":"Austria","Confirmed":"0","Deaths":"0","Latitude":"47.516231","Longitude":"14.550072","Population":"8955102"},{"Date":"2020-01-01","CountryCode":"AU","CountryName":"Australia","Confirmed":"0","Deaths":"0","Latitude":"-25.274398","Longitude":"133.775136","Population":"25203198"},{"Date":"2020-01-01","CountryCode":"AZ","CountryName":"Azerbaijan","Confirmed":"0","Deaths":"0","Latitude":"40.143105","Longitude":"47.576927","Population":"10047718"},{"Date":"2020-01-01","CountryCode":"BE","CountryName":"Belgium","Confirmed":"0","Deaths":"0","Latitude":"50.503887","Longitude":"4.469936","Population":"11539328"},{"Date":"2020-01-01","CountryCode":"BH","CountryName":"Bahrain","Confirmed":"0","Deaths":"0","Latitude":"25.930414","Longitude":"50.637772","Population":"1641172"},{"Date":"2020-01-01","CountryCode":"BR","CountryName":"Brazil","Confirmed":"0","Deaths":"0","Latitude":"-14.235004","Longitude":"-51.92528","Population":"211049527"},{"Date":"2020-01-01","CountryCode":"BY","CountryName":"Belarus","Confirmed":"0","Deaths":"0","Latitude":"53.709807","Longitude":"27.953389","Population":"9452411"},{"Date":"2020-01-01","CountryCode":"CA","CountryName":"Canada","Confirmed":"0","Deaths":"0","Latitude":"56.130366","Longitude":"-106.346771","Population":"37411047"},{"Date":"2020-01-01","CountryCode":"CH","CountryName":"Switzerland","Confirmed":"0","Deaths":"0","Latitude":"46.818188","Longitude":"8.227512","Population":"8591365"},{"Date":"2020-01-01","CountryCode":"CN","CountryName":"China","Confirmed":"27","Deaths":"0","Latitude":"35.86166","Longitude":"104.195397","Population":"1433783686"},{"Date":"2020-01-01","CountryCode":"CZ","CountryName":"Czech Republic","Confirmed":"0","Deaths":"0","Latitude":"49.817492","Longitude":"15.472962","Population":"10689209"},{"Date":"2020-01-01","CountryCode":"DE","CountryName":"Germany","Confirmed":"0","Deaths":"0","Latitude":"51.165691","Longitude":"10.451526","Population":"83517045"},{"Date":"2020-01-01","CountryCode":"DK","CountryName":"Denmark","Confirmed":"0","Deaths":"0","Latitude":"56.26392","Longitude":"9.501785","Population":"5771876"},{"Date":"2020-01-01","CountryCode":"DO","CountryName":"Dominican Republic","Confirmed":"0","Deaths":"0","Latitude":"18.735693","Longitude":"-70.162651","Population":"10738958"},{"Date":"2020-01-01","CountryCode":"DZ","CountryName":"Algeria","Confirmed":"0","Deaths":"0","Latitude":"28.033886","Longitude":"1.659626","Population":"43053054"},{"Date":"2020-01-01","CountryCode":"EC","CountryName":"Ecuador","Confirmed":"0","Deaths":"0","Latitude":"-1.831239","Longitude":"-78.183406","Population":"17373662"},{"Date":"2020-01-01","CountryCode":"EE","CountryName":"Estonia","Confirmed":"0","Deaths":"0","Latitude":"58.595272","Longitude":"25.013607","Population":"1325648"},{"Date":"2020-01-01","CountryCode":"EG","CountryName":"Egypt","Confirmed":"0","Deaths":"0","Latitude":"26.820553","Longitude":"30.802498","Population":"100388073"},{"Date":"2020-01-01","CountryCode":"ES","CountryName":"Spain","Confirmed":"0","Deaths":"0","Latitude":"40.463667","Longitude":"-3.74922","Population":"46736776"},{"Date":"2020-01-01","CountryCode":"FI","CountryName":"Finland","Confirmed":"0","Deaths":"0","Latitude":"61.92411","Longitude":"25.748151","Population":"5532156"},{"Date":"2020-01-01","CountryCode":"FR","CountryName":"France","Confirmed":"0","Deaths":"0","Latitude":"46.227638","Longitude":"2.213749","Population":"65129728"},{"Date":"2020-01-01","CountryCode":"GB","CountryName":"United Kingdom","Confirmed":"0","Deaths":"0","Latitude":"55.378051","Longitude":"-3.435973","Population":"67530172"},{"Date":"2020-01-01","CountryCode":"GE","CountryName":"Georgia","Confirmed":"0","Deaths":"0","Latitude":"42.315407","Longitude":"43.356892","Population":"3996765"},{"Date":"2020-01-01","CountryCode":"GR","CountryName":"Greece","Confirmed":"0","Deaths":"0","Latitude":"39.074208","Longitude":"21.824312","Population":"10473455"},{"Date":"2020-01-01","CountryCode":"HR","CountryName":"Croatia","Confirmed":"0","Deaths":"0","Latitude":"45.1","Longitude":"15.2","Population":"4130304"},{"Date":"2020-01-01","CountryCode":"ID","CountryName":"Indonesia","Confirmed":"0","Deaths":"0","Latitude":"-0.789275","Longitude":"113.921327","Population":"270625568"},{"Date":"2020-01-01","CountryCode":"IE","CountryName":"Ireland","Confirmed":"0","Deaths":"0","Latitude":"53.41291","Longitude":"-8.24389","Population":"4882495"},{"Date":"2020-01-01","CountryCode":"IL","CountryName":"Israel","Confirmed":"0","Deaths":"0","Latitude":"31.046051","Longitude":"34.851612","Population":"8519377"},{"Date":"2020-01-01","CountryCode":"IN","CountryName":"India","Confirmed":"0","Deaths":"0","Latitude":"20.593684","Longitude":"78.96288","Population":"1366417754"},{"Date":"2020-01-01","CountryCode":"IQ","CountryName":"Iraq","Confirmed":"0","Deaths":"0","Latitude":"33.223191","Longitude":"43.679291","Population":"39309783"},{"Date":"2020-01-01","CountryCode":"IR","CountryName":"Iran","Confirmed":"0","Deaths":"0","Latitude":"32.427908","Longitude":"53.688046","Population":"82913906"},{"Date":"2020-01-01","CountryCode":"IS","CountryName":"Iceland","Confirmed":"0","Deaths":"0","Latitude":"64.963051","Longitude":"-19.020835","Population":"339031"},{"Date":"2020-01-01","CountryCode":"IT","CountryName":"Italy","Confirmed":"0","Deaths":"0","Latitude":"41.87194","Longitude":"12.56738","Population":"60550075"},{"Date":"2020-01-01","CountryCode":"JP","CountryName":"Japan","Confirmed":"0","Deaths":"0","Latitude":"36.204824","Longitude":"138.252924","Population":"126860301"},{"Date":"2020-01-01","CountryCode":"KH","CountryName":"Cambodia","Confirmed":"0","Deaths":"0","Latitude":"12.565679","Longitude":"104.990963","Population":"16486542"},{"Date":"2020-01-01","CountryCode":"KR","CountryName":"South Korea","Confirmed":"0","Deaths":"0","Latitude":"35.907757","Longitude":"127.766922","Population":"51225308"},{"Date":"2020-01-01","CountryCode":"KW","CountryName":"Kuwait","Confirmed":"0","Deaths":"0","Latitude":"29.31166","Longitude":"47.481766","Population":"4207083"},{"Date":"2020-01-01","CountryCode":"LB","CountryName":"Lebanon","Confirmed":"0","Deaths":"0","Latitude":"33.854721","Longitude":"35.862285","Population":"6855713"},{"Date":"2020-01-01","CountryCode":"LK","CountryName":"Sri Lanka","Confirmed":"0","Deaths":"0","Latitude":"7.873054","Longitude":"80.771797","Population":"21323733"},{"Date":"2020-01-01","CountryCode":"LT","CountryName":"Lithuania","Confirmed":"0","Deaths":"0","Latitude":"55.169438","Longitude":"23.881275","Population":"2759627"},{"Date":"2020-01-01","CountryCode":"LU","CountryName":"Luxembourg","Confirmed":"0","Deaths":"0","Latitude":"49.815273","Longitude":"6.129583","Population":"615729"},{"Date":"2020-01-01","CountryCode":"MC","CountryName":"Monaco","Confirmed":"0","Deaths":"0","Latitude":"43.750298","Longitude":"7.412841","Population":"38964"},{"Date":"2020-01-01","CountryCode":"MK","CountryName":"Macedonia","Confirmed":"0","Deaths":"0","Latitude":"41.608635","Longitude":"21.745275","Population":"2083459"},{"Date":"2020-01-01","CountryCode":"MX","CountryName":"Mexico","Confirmed":"0","Deaths":"0","Latitude":"23.634501","Longitude":"-102.552784","Population":"127575529"},{"Date":"2020-01-01","CountryCode":"MY","CountryName":"Malaysia","Confirmed":"0","Deaths":"0","Latitude":"4.210484","Longitude":"101.975766","Population":"31949777"},{"Date":"2020-01-01","CountryCode":"NG","CountryName":"Nigeria","Confirmed":"0","Deaths":"0","Latitude":"9.081999","Longitude":"8.675277","Population":"200963599"},{"Date":"2020-01-01","CountryCode":"NL","CountryName":"Netherlands","Confirmed":"0","Deaths":"0","Latitude":"52.132633","Longitude":"5.291266","Population":"17097130"},{"Date":"2020-01-01","CountryCode":"NO","CountryName":"Norway","Confirmed":"0","Deaths":"0","Latitude":"60.472024","Longitude":"8.468946","Population":"5378857"},{"Date":"2020-01-01","CountryCode":"NP","CountryName":"Nepal","Confirmed":"0","Deaths":"0","Latitude":"28.394857","Longitude":"84.124008","Population":"28608710"},{"Date":"2020-01-01","CountryCode":"NZ","CountryName":"New Zealand","Confirmed":"0","Deaths":"0","Latitude":"-40.900557","Longitude":"174.885971","Population":"4783063"},{"Date":"2020-01-01","CountryCode":"OM","CountryName":"Oman","Confirmed":"0","Deaths":"0","Latitude":"21.512583","Longitude":"55.923255","Population":"4974986"},{"Date":"2020-01-01","CountryCode":"PH","CountryName":"Philippines","Confirmed":"0","Deaths":"0","Latitude":"12.879721","Longitude":"121.774017","Population":"108116615"},{"Date":"2020-01-01","CountryCode":"PK","CountryName":"Pakistan","Confirmed":"0","Deaths":"0","Latitude":"30.375321","Longitude":"69.345116","Population":"216565318"},{"Date":"2020-01-01","CountryCode":"QA","CountryName":"Qatar","Confirmed":"0","Deaths":"0","Latitude":"25.354826","Longitude":"51.183884","Population":"2832067"},{"Date":"2020-01-01","CountryCode":"RO","CountryName":"Romania","Confirmed":"0","Deaths":"0","Latitude":"45.943161","Longitude":"24.96676","Population":"19364557"},{"Date":"2020-01-01","CountryCode":"RU","CountryName":"Russia","Confirmed":"0","Deaths":"0","Latitude":"61.52401","Longitude":"105.318756","Population":"145872256"},{"Date":"2020-01-01","CountryCode":"SE","CountryName":"Sweden","Confirmed":"0","Deaths":"0","Latitude":"60.128161","Longitude":"18.643501","Population":"10036379"},{"Date":"2020-01-01","CountryCode":"SG","CountryName":"Singapore","Confirmed":"0","Deaths":"0","Latitude":"1.352083","Longitude":"103.819836","Population":"5804337"},{"Date":"2020-01-01","CountryCode":"SM","CountryName":"San Marino","Confirmed":"0","Deaths":"0","Latitude":"43.94236","Longitude":"12.457777","Population":"33860"},{"Date":"2020-01-01","CountryCode":"TH","CountryName":"Thailand","Confirmed":"0","Deaths":"0","Latitude":"15.870032","Longitude":"100.992541","Population":"69037513"},{"Date":"2020-01-01","CountryCode":"TW","CountryName":"Taiwan","Confirmed":"0","Deaths":"0","Latitude":"23.69781","Longitude":"120.960515","Population":"23773876"},{"Date":"2020-01-01","CountryCode":"US","CountryName":"United States of America","Confirmed":"0","Deaths":"0","Latitude":"37.09024","Longitude":"-95.712891","Population":"329064917"},{"Date":"2020-01-01","CountryCode":"VN","CountryName":"Vietnam","Confirmed":"0","Deaths":"0","Latitude":"14.058324","Longitude":"108.277199","Population":"96462106"},{"Date":"2020-01-02","CountryCode":"AE","CountryName":"United Arab Emirates","Confirmed":"0","Deaths":"0","Latitude":"23.424076","Longitude":"53.847818","Population":"9770529"},{"Date":"2020-01-02","CountryCode":"AF","CountryName":"Afghanistan","Confirmed":"0","Deaths":"0","Latitude":"33.93911","Longitude":"67.709953","Population":"38041754"},{"Date":"2020-01-02","CountryCode":"AM","CountryName":"Armenia","Confirmed":"0","Deaths":"0","Latitude":"40.069099","Longitude":"45.038189","Population":"2957731"},{"Date":"2020-01-02","CountryCode":"AT","CountryName":"Austria","Confirmed":"0","Deaths":"0","Latitude":"47.516231","Longitude":"14.550072","Population":"8955102"},{"Date":"2020-01-02","CountryCode":"AU","CountryName":"Australia","Confirmed":"0","Deaths":"0","Latitude":"-25.274398","Longitude":"133.775136","Population":"25203198"},{"Date":"2020-01-02","CountryCode":"AZ","CountryName":"Azerbaijan","Confirmed":"0","Deaths":"0","Latitude":"40.143105","Longitude":"47.576927","Population":"10047718"},{"Date":"2020-01-02","CountryCode":"BE","CountryName":"Belgium","Confirmed":"0","Deaths":"0","Latitude":"50.503887","Longitude":"4.469936","Population":"11539328"},{"Date":"2020-01-02","CountryCode":"BH","CountryName":"Bahrain","Confirmed":"0","Deaths":"0","Latitude":"25.930414","Longitude":"50.637772","Population":"1641172"},{"Date":"2020-01-02","CountryCode":"BR","CountryName":"Brazil","Confirmed":"0","Deaths":"0","Latitude":"-14.235004","Longitude":"-51.92528","Population":"211049527"},{"Date":"2020-01-02","CountryCode":"BY","CountryName":"Belarus","Confirmed":"0","Deaths":"0","Latitude":"53.709807","Longitude":"27.953389","Population":"9452411"},{"Date":"2020-01-02","CountryCode":"CA","CountryName":"Canada","Confirmed":"0","Deaths":"0","Latitude":"56.130366","Longitude":"-106.346771","Population":"37411047"},{"Date":"2020-01-02","CountryCode":"CH","CountryName":"Switzerland","Confirmed":"0","Deaths":"0","Latitude":"46.818188","Longitude":"8.227512","Population":"8591365"},{"Date":"2020-01-02","CountryCode":"CN","CountryName":"China","Confirmed":"27","Deaths":"0","Latitude":"35.86166","Longitude":"104.195397","Population":"1433783686"},{"Date":"2020-01-02","CountryCode":"CZ","CountryName":"Czech Republic","Confirmed":"0","Deaths":"0","Latitude":"49.817492","Longitude":"15.472962","Population":"10689209"},{"Date":"2020-01-02","CountryCode":"DE","CountryName":"Germany","Confirmed":"0","Deaths":"0","Latitude":"51.165691","Longitude":"10.451526","Population":"83517045"},{"Date":"2020-01-02","CountryCode":"DK","CountryName":"Denmark","Confirmed":"0","Deaths":"0","Latitude":"56.26392","Longitude":"9.501785","Population":"5771876"},{"Date":"2020-01-02","CountryCode":"DO","CountryName":"Dominican Republic","Confirmed":"0","Deaths":"0","Latitude":"18.735693","Longitude":"-70.162651","Population":"10738958"},{"Date":"2020-01-02","CountryCode":"DZ","CountryName":"Algeria","Confirmed":"0","Deaths":"0","Latitude":"28.033886","Longitude":"1.659626","Population":"43053054"},{"Date":"2020-01-02","CountryCode":"EC","CountryName":"Ecuador","Confirmed":"0","Deaths":"0","Latitude":"-1.831239","Longitude":"-78.183406","Population":"17373662"},{"Date":"2020-01-02","CountryCode":"EE","CountryName":"Estonia","Confirmed":"0","Deaths":"0","Latitude":"58.595272","Longitude":"25.013607","Population":"1325648"},{"Date":"2020-01-02","CountryCode":"EG","CountryName":"Egypt","Confirmed":"0","Deaths":"0","Latitude":"26.820553","Longitude":"30.802498","Population":"100388073"},{"Date":"2020-01-02","CountryCode":"ES","CountryName":"Spain","Confirmed":"0","Deaths":"0","Latitude":"40.463667","Longitude":"-3.74922","Population":"46736776"},{"Date":"2020-01-02","CountryCode":"FI","CountryName":"Finland","Confirmed":"0","Deaths":"0","Latitude":"61.92411","Longitude":"25.748151","Population":"5532156"},{"Date":"2020-01-02","CountryCode":"FR","CountryName":"France","Confirmed":"0","Deaths":"0","Latitude":"46.227638","Longitude":"2.213749","Population":"65129728"},{"Date":"2020-01-02","CountryCode":"GB","CountryName":"United Kingdom","Confirmed":"0","Deaths":"0","Latitude":"55.378051","Longitude":"-3.435973","Population":"67530172"},{"Date":"2020-01-02","CountryCode":"GE","CountryName":"Georgia","Confirmed":"0","Deaths":"0","Latitude":"42.315407","Longitude":"43.356892","Population":"3996765"},{"Date":"2020-01-02","CountryCode":"GR","CountryName":"Greece","Confirmed":"0","Deaths":"0","Latitude":"39.074208","Longitude":"21.824312","Population":"10473455"},{"Date":"2020-01-02","CountryCode":"HR","CountryName":"Croatia","Confirmed":"0","Deaths":"0","Latitude":"45.1","Longitude":"15.2","Population":"4130304"},{"Date":"2020-01-02","CountryCode":"ID","CountryName":"Indonesia","Confirmed":"0","Deaths":"0","Latitude":"-0.789275","Longitude":"113.921327","Population":"270625568"},{"Date":"2020-01-02","CountryCode":"IE","CountryName":"Ireland","Confirmed":"0","Deaths":"0","Latitude":"53.41291","Longitude":"-8.24389","Population":"4882495"},{"Date":"2020-01-02","CountryCode":"IL","CountryName":"Israel","Confirmed":"0","Deaths":"0","Latitude":"31.046051","Longitude":"34.851612","Population":"8519377"},{"Date":"2020-01-02","CountryCode":"IN","CountryName":"India","Confirmed":"0","Deaths":"0","Latitude":"20.593684","Longitude":"78.96288","Population":"1366417754"},{"Date":"2020-01-02","CountryCode":"IQ","CountryName":"Iraq","Confirmed":"0","Deaths":"0","Latitude":"33.223191","Longitude":"43.679291","Population":"39309783"},{"Date":"2020-01-02","CountryCode":"IR","CountryName":"Iran","Confirmed":"0","Deaths":"0","Latitude":"32.427908","Longitude":"53.688046","Population":"82913906"},{"Date":"2020-01-02","CountryCode":"IS","CountryName":"Iceland","Confirmed":"0","Deaths":"0","Latitude":"64.963051","Longitude":"-19.020835","Population":"339031"},{"Date":"2020-01-02","CountryCode":"IT","CountryName":"Italy","Confirmed":"0","Deaths":"0","Latitude":"41.87194","Longitude":"12.56738","Population":"60550075"},{"Date":"2020-01-02","CountryCode":"JP","CountryName":"Japan","Confirmed":"0","Deaths":"0","Latitude":"36.204824","Longitude":"138.252924","Population":"126860301"},{"Date":"2020-01-02","CountryCode":"KH","CountryName":"Cambodia","Confirmed":"0","Deaths":"0","Latitude":"12.565679","Longitude":"104.990963","Population":"16486542"},{"Date":"2020-01-02","CountryCode":"KR","CountryName":"South Korea","Confirmed":"0","Deaths":"0","Latitude":"35.907757","Longitude":"127.766922","Population":"51225308"},{"Date":"2020-01-02","CountryCode":"KW","CountryName":"Kuwait","Confirmed":"0","Deaths":"0","Latitude":"29.31166","Longitude":"47.481766","Population":"4207083"},{"Date":"2020-01-02","CountryCode":"LB","CountryName":"Lebanon","Confirmed":"0","Deaths":"0","Latitude":"33.854721","Longitude":"35.862285","Population":"6855713"},{"Date":"2020-01-02","CountryCode":"LK","CountryName":"Sri Lanka","Confirmed":"0","Deaths":"0","Latitude":"7.873054","Longitude":"80.771797","Population":"21323733"},{"Date":"2020-01-02","CountryCode":"LT","CountryName":"Lithuania","Confirmed":"0","Deaths":"0","Latitude":"55.169438","Longitude":"23.881275","Population":"2759627"},{"Date":"2020-01-02","CountryCode":"LU","CountryName":"Luxembourg","Confirmed":"0","Deaths":"0","Latitude":"49.815273","Longitude":"6.129583","Population":"615729"},{"Date":"2020-01-02","CountryCode":"MC","CountryName":"Monaco","Confirmed":"0","Deaths":"0","Latitude":"43.750298","Longitude":"7.412841","Population":"38964"},{"Date":"2020-01-02","CountryCode":"MK","CountryName":"Macedonia","Confirmed":"0","Deaths":"0","Latitude":"41.608635","Longitude":"21.745275","Population":"2083459"},{"Date":"2020-01-02","CountryCode":"MX","CountryName":"Mexico","Confirmed":"0","Deaths":"0","Latitude":"23.634501","Longitude":"-102.552784","Population":"127575529"},{"Date":"2020-01-02","CountryCode":"MY","CountryName":"Malaysia","Confirmed":"0","Deaths":"0","Latitude":"4.210484","Longitude":"101.975766","Population":"31949777"},{"Date":"2020-01-02","CountryCode":"NG","CountryName":"Nigeria","Confirmed":"0","Deaths":"0","Latitude":"9.081999","Longitude":"8.675277","Population":"200963599"},{"Date":"2020-01-02","CountryCode":"NL","CountryName":"Netherlands","Confirmed":"0","Deaths":"0","Latitude":"52.132633","Longitude":"5.291266","Population":"17097130"},{"Date":"2020-01-02","CountryCode":"NO","CountryName":"Norway","Confirmed":"0","Deaths":"0","Latitude":"60.472024","Longitude":"8.468946","Population":"5378857"},{"Date":"2020-01-02","CountryCode":"NP","CountryName":"Nepal","Confirmed":"0","Deaths":"0","Latitude":"28.394857","Longitude":"84.124008","Population":"28608710"},{"Date":"2020-01-02","CountryCode":"NZ","CountryName":"New Zealand","Confirmed":"0","Deaths":"0","Latitude":"-40.900557","Longitude":"174.885971","Population":"4783063"},{"Date":"2020-01-02","CountryCode":"OM","CountryName":"Oman","Confirmed":"0","Deaths":"0","Latitude":"21.512583","Longitude":"55.923255","Population":"4974986"},{"Date":"2020-01-02","CountryCode":"PH","CountryName":"Philippines","Confirmed":"0","Deaths":"0","Latitude":"12.879721","Longitude":"121.774017","Population":"108116615"},{"Date":"2020-01-02","CountryCode":"PK","CountryName":"Pakistan","Confirmed":"0","Deaths":"0","Latitude":"30.375321","Longitude":"69.345116","Population":"216565318"},{"Date":"2020-01-02","CountryCode":"QA","CountryName":"Qatar","Confirmed":"0","Deaths":"0","Latitude":"25.354826","Longitude":"51.183884","Population":"2832067"},{"Date":"2020-01-02","CountryCode":"RO","CountryName":"Romania","Confirmed":"0","Deaths":"0","Latitude":"45.943161","Longitude":"24.96676","Population":"19364557"},{"Date":"2020-01-02","CountryCode":"RU","CountryName":"Russia","Confirmed":"0","Deaths":"0","Latitude":"61.52401","Longitude":"105.318756","Population":"145872256"},{"Date":"2020-01-02","CountryCode":"SE","CountryName":"Sweden","Confirmed":"0","Deaths":"0","Latitude":"60.128161","Longitude":"18.643501","Population":"10036379"},{"Date":"2020-01-02","CountryCode":"SG","CountryName":"Singapore","Confirmed":"0","Deaths":"0","Latitude":"1.352083","Longitude":"103.819836","Population":"5804337"},{"Date":"2020-01-02","CountryCode":"SM","CountryName":"San Marino","Confirmed":"0","Deaths":"0","Latitude":"43.94236","Longitude":"12.457777","Population":"33860"},{"Date":"2020-01-02","CountryCode":"TH","CountryName":"Thailand","Confirmed":"0","Deaths":"0","Latitude":"15.870032","Longitude":"100.992541","Population":"69037513"},{"Date":"2020-01-02","CountryCode":"TW","CountryName":"Taiwan","Confirmed":"0","Deaths":"0","Latitude":"23.69781","Longitude":"120.960515","Population":"23773876"},{"Date":"2020-01-02","CountryCode":"US","CountryName":"United States of America","Confirmed":"0","Deaths":"0","Latitude":"37.09024","Longitude":"-95.712891","Population":"329064917"},{"Date":"2020-01-02","CountryCode":"VN","CountryName":"Vietnam","Confirmed":"0","Deaths":"0","Latitude":"14.058324","Longitude":"108.277199","Population":"96462106"},{"Date":"2020-01-03","CountryCode":"AE","CountryName":"United Arab Emirates","Confirmed":"0","Deaths":"0","Latitude":"23.424076","Longitude":"53.847818","Population":"9770529"},{"Date":"2020-01-03","CountryCode":"AF","CountryName":"Afghanistan","Confirmed":"0","Deaths":"0","Latitude":"33.93911","Longitude":"67.709953","Population":"38041754"},{"Date":"2020-01-03","CountryCode":"AM","CountryName":"Armenia","Confirmed":"0","Deaths":"0","Latitude":"40.069099","Longitude":"45.038189","Population":"2957731"},{"Date":"2020-01-03","CountryCode":"AT","CountryName":"Austria","Confirmed":"0","Deaths":"0","Latitude":"47.516231","Longitude":"14.550072","Population":"8955102"},{"Date":"2020-01-03","CountryCode":"AU","CountryName":"Australia","Confirmed":"0","Deaths":"0","Latitude":"-25.274398","Longitude":"133.775136","Population":"25203198"},{"Date":"2020-01-03","CountryCode":"AZ","CountryName":"Azerbaijan","Confirmed":"0","Deaths":"0","Latitude":"40.143105","Longitude":"47.576927","Population":"10047718"},{"Date":"2020-01-03","CountryCode":"BE","CountryName":"Belgium","Confirmed":"0","Deaths":"0","Latitude":"50.503887","Longitude":"4.469936","Population":"11539328"},{"Date":"2020-01-03","CountryCode":"BH","CountryName":"Bahrain","Confirmed":"0","Deaths":"0","Latitude":"25.930414","Longitude":"50.637772","Population":"1641172"},{"Date":"2020-01-03","CountryCode":"BR","CountryName":"Brazil","Confirmed":"0","Deaths":"0","Latitude":"-14.235004","Longitude":"-51.92528","Population":"211049527"},{"Date":"2020-01-03","CountryCode":"BY","CountryName":"Belarus","Confirmed":"0","Deaths":"0","Latitude":"53.709807","Longitude":"27.953389","Population":"9452411"},{"Date":"2020-01-03","CountryCode":"CA","CountryName":"Canada","Confirmed":"0","Deaths":"0","Latitude":"56.130366","Longitude":"-106.346771","Population":"37411047"},{"Date":"2020-01-03","CountryCode":"CH","CountryName":"Switzerland","Confirmed":"0","Deaths":"0","Latitude":"46.818188","Longitude":"8.227512","Population":"8591365"},{"Date":"2020-01-03","CountryCode":"CN","CountryName":"China","Confirmed":"44","Deaths":"0","Latitude":"35.86166","Longitude":"104.195397","Population":"1433783686"},{"Date":"2020-01-03","CountryCode":"CZ","CountryName":"Czech Republic","Confirmed":"0","Deaths":"0","Latitude":"49.817492","Longitude":"15.472962","Population":"10689209"},{"Date":"2020-01-03","CountryCode":"DE","CountryName":"Germany","Confirmed":"0","Deaths":"0","Latitude":"51.165691","Longitude":"10.451526","Population":"83517045"},{"Date":"2020-01-03","CountryCode":"DK","CountryName":"Denmark","Confirmed":"0","Deaths":"0","Latitude":"56.26392","Longitude":"9.501785","Population":"5771876"},{"Date":"2020-01-03","CountryCode":"DO","CountryName":"Dominican Republic","Confirmed":"0","Deaths":"0","Latitude":"18.735693","Longitude":"-70.162651","Population":"10738958"},{"Date":"2020-01-03","CountryCode":"DZ","CountryName":"Algeria","Confirmed":"0","Deaths":"0","Latitude":"28.033886","Longitude":"1.659626","Population":"43053054"},{"Date":"2020-01-03","CountryCode":"EC","CountryName":"Ecuador","Confirmed":"0","Deaths":"0","Latitude":"-1.831239","Longitude":"-78.183406","Population":"17373662"},{"Date":"2020-01-03","CountryCode":"EE","CountryName":"Estonia","Confirmed":"0","Deaths":"0","Latitude":"58.595272","Longitude":"25.013607","Population":"1325648"},{"Date":"2020-01-03","CountryCode":"EG","CountryName":"Egypt","Confirmed":"0","Deaths":"0","Latitude":"26.820553","Longitude":"30.802498","Population":"100388073"},{"Date":"2020-01-03","CountryCode":"ES","CountryName":"Spain","Confirmed":"0","Deaths":"0","Latitude":"40.463667","Longitude":"-3.74922","Population":"46736776"},{"Date":"2020-01-03","CountryCode":"FI","CountryName":"Finland","Confirmed":"0","Deaths":"0","Latitude":"61.92411","Longitude":"25.748151","Population":"5532156"},{"Date":"2020-01-03","CountryCode":"FR","CountryName":"France","Confirmed":"0","Deaths":"0","Latitude":"46.227638","Longitude":"2.213749","Population":"65129728"},{"Date":"2020-01-03","CountryCode":"GB","CountryName":"United Kingdom","Confirmed":"0","Deaths":"0","Latitude":"55.378051","Longitude":"-3.435973","Population":"67530172"},{"Date":"2020-01-03","CountryCode":"GE","CountryName":"Georgia","Confirmed":"0","Deaths":"0","Latitude":"42.315407","Longitude":"43.356892","Population":"3996765"},{"Date":"2020-01-03","CountryCode":"GR","CountryName":"Greece","Confirmed":"0","Deaths":"0","Latitude":"39.074208","Longitude":"21.824312","Population":"10473455"},{"Date":"2020-01-03","CountryCode":"HR","CountryName":"Croatia","Confirmed":"0","Deaths":"0","Latitude":"45.1","Longitude":"15.2","Population":"4130304"},{"Date":"2020-01-03","CountryCode":"ID","CountryName":"Indonesia","Confirmed":"0","Deaths":"0","Latitude":"-0.789275","Longitude":"113.921327","Population":"270625568"},{"Date":"2020-01-03","CountryCode":"IE","CountryName":"Ireland","Confirmed":"0","Deaths":"0","Latitude":"53.41291","Longitude":"-8.24389","Population":"4882495"},{"Date":"2020-01-03","CountryCode":"IL","CountryName":"Israel","Confirmed":"0","Deaths":"0","Latitude":"31.046051","Longitude":"34.851612","Population":"8519377"},{"Date":"2020-01-03","CountryCode":"IN","CountryName":"India","Confirmed":"0","Deaths":"0","Latitude":"20.593684","Longitude":"78.96288","Population":"1366417754"},{"Date":"2020-01-03","CountryCode":"IQ","CountryName":"Iraq","Confirmed":"0","Deaths":"0","Latitude":"33.223191","Longitude":"43.679291","Population":"39309783"},{"Date":"2020-01-03","CountryCode":"IR","CountryName":"Iran","Confirmed":"0","Deaths":"0","Latitude":"32.427908","Longitude":"53.688046","Population":"82913906"},{"Date":"2020-01-03","CountryCode":"IS","CountryName":"Iceland","Confirmed":"0","Deaths":"0","Latitude":"64.963051","Longitude":"-19.020835","Population":"339031"},{"Date":"2020-01-03","CountryCode":"IT","CountryName":"Italy","Confirmed":"0","Deaths":"0","Latitude":"41.87194","Longitude":"12.56738","Population":"60550075"},{"Date":"2020-01-03","CountryCode":"JP","CountryName":"Japan","Confirmed":"0","Deaths":"0","Latitude":"36.204824","Longitude":"138.252924","Population":"126860301"},{"Date":"2020-01-03","CountryCode":"KH","CountryName":"Cambodia","Confirmed":"0","Deaths":"0","Latitude":"12.565679","Longitude":"104.990963","Population":"16486542"},{"Date":"2020-01-03","CountryCode":"KR","CountryName":"South Korea","Confirmed":"0","Deaths":"0","Latitude":"35.907757","Longitude":"127.766922","Population":"51225308"},{"Date":"2020-01-03","CountryCode":"KW","CountryName":"Kuwait","Confirmed":"0","Deaths":"0","Latitude":"29.31166","Longitude":"47.481766","Population":"4207083"},{"Date":"2020-01-03","CountryCode":"LB","CountryName":"Lebanon","Confirmed":"0","Deaths":"0","Latitude":"33.854721","Longitude":"35.862285","Population":"6855713"},{"Date":"2020-01-03","CountryCode":"LK","CountryName":"Sri Lanka","Confirmed":"0","Deaths":"0","Latitude":"7.873054","Longitude":"80.771797","Population":"21323733"},{"Date":"2020-01-03","CountryCode":"LT","CountryName":"Lithuania","Confirmed":"0","Deaths":"0","Latitude":"55.169438","Longitude":"23.881275","Population":"2759627"},{"Date":"2020-01-03","CountryCode":"LU","CountryName":"Luxembourg","Confirmed":"0","Deaths":"0","Latitude":"49.815273","Longitude":"6.129583","Population":"615729"},{"Date":"2020-01-03","CountryCode":"MC","CountryName":"Monaco","Confirmed":"0","Deaths":"0","Latitude":"43.750298","Longitude":"7.412841","Population":"38964"},{"Date":"2020-01-03","CountryCode":"MK","CountryName":"Macedonia","Confirmed":"0","Deaths":"0","Latitude":"41.608635","Longitude":"21.745275","Population":"2083459"},{"Date":"2020-01-03","CountryCode":"MX","CountryName":"Mexico","Confirmed":"0","Deaths":"0","Latitude":"23.634501","Longitude":"-102.552784","Population":"127575529"},{"Date":"2020-01-03","CountryCode":"MY","CountryName":"Malaysia","Confirmed":"0","Deaths":"0","Latitude":"4.210484","Longitude":"101.975766","Population":"31949777"},{"Date":"2020-01-03","CountryCode":"NG","CountryName":"Nigeria","Confirmed":"0","Deaths":"0","Latitude":"9.081999","Longitude":"8.675277","Population":"200963599"},{"Date":"2020-01-03","CountryCode":"NL","CountryName":"Netherlands","Confirmed":"0","Deaths":"0","Latitude":"52.132633","Longitude":"5.291266","Population":"17097130"},{"Date":"2020-01-03","CountryCode":"NO","CountryName":"Norway","Confirmed":"0","Deaths":"0","Latitude":"60.472024","Longitude":"8.468946","Population":"5378857"},{"Date":"2020-01-03","CountryCode":"NP","CountryName":"Nepal","Confirmed":"0","Deaths":"0","Latitude":"28.394857","Longitude":"84.124008","Population":"28608710"},{"Date":"2020-01-03","CountryCode":"NZ","CountryName":"New Zealand","Confirmed":"0","Deaths":"0","Latitude":"-40.900557","Longitude":"174.885971","Population":"4783063"},{"Date":"2020-01-03","CountryCode":"OM","CountryName":"Oman","Confirmed":"0","Deaths":"0","Latitude":"21.512583","Longitude":"55.923255","Population":"4974986"},{"Date":"2020-01-03","CountryCode":"PH","CountryName":"Philippines","Confirmed":"0","Deaths":"0","Latitude":"12.879721","Longitude":"121.774017","Population":"108116615"},{"Date":"2020-01-03","CountryCode":"PK","CountryName":"Pakistan","Confirmed":"0","Deaths":"0","Latitude":"30.375321","Longitude":"69.345116","Population":"216565318"},{"Date":"2020-01-03","CountryCode":"QA","CountryName":"Qatar","Confirmed":"0","Deaths":"0","Latitude":"25.354826","Longitude":"51.183884","Population":"2832067"},{"Date":"2020-01-03","CountryCode":"RO","CountryName":"Romania","Confirmed":"0","Deaths":"0","Latitude":"45.943161","Longitude":"24.96676","Population":"19364557"},{"Date":"2020-01-03","CountryCode":"RU","CountryName":"Russia","Confirmed":"0","Deaths":"0","Latitude":"61.52401","Longitude":"105.318756","Population":"145872256"},{"Date":"2020-01-03","CountryCode":"SE","CountryName":"Sweden","Confirmed":"0","Deaths":"0","Latitude":"60.128161","Longitude":"18.643501","Population":"10036379"},{"Date":"2020-01-03","CountryCode":"SG","CountryName":"Singapore","Confirmed":"0","Deaths":"0","Latitude":"1.352083","Longitude":"103.819836","Population":"5804337"},{"Date":"2020-01-03","CountryCode":"SM","CountryName":"San Marino","Confirmed":"0","Deaths":"0","Latitude":"43.94236","Longitude":"12.457777","Population":"33860"},{"Date":"2020-01-03","CountryCode":"TH","CountryName":"Thailand","Confirmed":"0","Deaths":"0","Latitude":"15.870032","Longitude":"100.992541","Population":"69037513"},{"Date":"2020-01-03","CountryCode":"TW","CountryName":"Taiwan","Confirmed":"0","Deaths":"0","Latitude":"23.69781","Longitude":"120.960515","Population":"23773876"},{"Date":"2020-01-03","CountryCode":"US","CountryName":"United States of America","Confirmed":"0","Deaths":"0","Latitude":"37.09024","Longitude":"-95.712891","Population":"329064917"},{"Date":"2020-01-03","CountryCode":"VN","CountryName":"Vietnam","Confirmed":"0","Deaths":"0","Latitude":"14.058324","Longitude":"108.277199","Population":"96462106"},{"Date":"2020-01-04","CountryCode":"AE","CountryName":"United Arab Emirates","Confirmed":"0","Deaths":"0","Latitude":"23.424076","Longitude":"53.847818","Population":"9770529"},{"Date":"2020-01-04","CountryCode":"AF","CountryName":"Afghanistan","Confirmed":"0","Deaths":"0","Latitude":"33.93911","Longitude":"67.709953","Population":"38041754"},{"Date":"2020-01-04","CountryCode":"AM","CountryName":"Armenia","Confirmed":"0","Deaths":"0","Latitude":"40.069099","Longitude":"45.038189","Population":"2957731"},{"Date":"2020-01-04","CountryCode":"AT","CountryName":"Austria","Confirmed":"0","Deaths":"0","Latitude":"47.516231","Longitude":"14.550072","Population":"8955102"},{"Date":"2020-01-04","CountryCode":"AU","CountryName":"Australia","Confirmed":"0","Deaths":"0","Latitude":"-25.274398","Longitude":"133.775136","Population":"25203198"},{"Date":"2020-01-04","CountryCode":"AZ","CountryName":"Azerbaijan","Confirmed":"0","Deaths":"0","Latitude":"40.143105","Longitude":"47.576927","Population":"10047718"},{"Date":"2020-01-04","CountryCode":"BE","CountryName":"Belgium","Confirmed":"0","Deaths":"0","Latitude":"50.503887","Longitude":"4.469936","Population":"11539328"},{"Date":"2020-01-04","CountryCode":"BH","CountryName":"Bahrain","Confirmed":"0","Deaths":"0","Latitude":"25.930414","Longitude":"50.637772","Population":"1641172"},{"Date":"2020-01-04","CountryCode":"BR","CountryName":"Brazil","Confirmed":"0","Deaths":"0","Latitude":"-14.235004","Longitude":"-51.92528","Population":"211049527"},{"Date":"2020-01-04","CountryCode":"BY","CountryName":"Belarus","Confirmed":"0","Deaths":"0","Latitude":"53.709807","Longitude":"27.953389","Population":"9452411"},{"Date":"2020-01-04","CountryCode":"CA","CountryName":"Canada","Confirmed":"0","Deaths":"0","Latitude":"56.130366","Longitude":"-106.346771","Population":"37411047"},{"Date":"2020-01-04","CountryCode":"CH","CountryName":"Switzerland","Confirmed":"0","Deaths":"0","Latitude":"46.818188","Longitude":"8.227512","Population":"8591365"},{"Date":"2020-01-04","CountryCode":"CN","CountryName":"China","Confirmed":"44","Deaths":"0","Latitude":"35.86166","Longitude":"104.195397","Population":"1433783686"},{"Date":"2020-01-04","CountryCode":"CZ","CountryName":"Czech Republic","Confirmed":"0","Deaths":"0","Latitude":"49.817492","Longitude":"15.472962","Population":"10689209"},{"Date":"2020-01-04","CountryCode":"DE","CountryName":"Germany","Confirmed":"0","Deaths":"0","Latitude":"51.165691","Longitude":"10.451526","Population":"83517045"},{"Date":"2020-01-04","CountryCode":"DK","CountryName":"Denmark","Confirmed":"0","Deaths":"0","Latitude":"56.26392","Longitude":"9.501785","Population":"5771876"},{"Date":"2020-01-04","CountryCode":"DO","CountryName":"Dominican Republic","Confirmed":"0","Deaths":"0","Latitude":"18.735693","Longitude":"-70.162651","Population":"10738958"},{"Date":"2020-01-04","CountryCode":"DZ","CountryName":"Algeria","Confirmed":"0","Deaths":"0","Latitude":"28.033886","Longitude":"1.659626","Population":"43053054"},{"Date":"2020-01-04","CountryCode":"EC","CountryName":"Ecuador","Confirmed":"0","Deaths":"0","Latitude":"-1.831239","Longitude":"-78.183406","Population":"17373662"},{"Date":"2020-01-04","CountryCode":"EE","CountryName":"Estonia","Confirmed":"0","Deaths":"0","Latitude":"58.595272","Longitude":"25.013607","Population":"1325648"},{"Date":"2020-01-04","CountryCode":"EG","CountryName":"Egypt","Confirmed":"0","Deaths":"0","Latitude":"26.820553","Longitude":"30.802498","Population":"100388073"},{"Date":"2020-01-04","CountryCode":"ES","CountryName":"Spain","Confirmed":"0","Deaths":"0","Latitude":"40.463667","Longitude":"-3.74922","Population":"46736776"},{"Date":"2020-01-04","CountryCode":"FI","CountryName":"Finland","Confirmed":"0","Deaths":"0","Latitude":"61.92411","Longitude":"25.748151","Population":"5532156"},{"Date":"2020-01-04","CountryCode":"FR","CountryName":"France","Confirmed":"0","Deaths":"0","Latitude":"46.227638","Longitude":"2.213749","Population":"65129728"},{"Date":"2020-01-04","CountryCode":"GB","CountryName":"United Kingdom","Confirmed":"0","Deaths":"0","Latitude":"55.378051","Longitude":"-3.435973","Population":"67530172"},{"Date":"2020-01-04","CountryCode":"GE","CountryName":"Georgia","Confirmed":"0","Deaths":"0","Latitude":"42.315407","Longitude":"43.356892","Population":"3996765"},{"Date":"2020-01-04","CountryCode":"GR","CountryName":"Greece","Confirmed":"0","Deaths":"0","Latitude":"39.074208","Longitude":"21.824312","Population":"10473455"},{"Date":"2020-01-04","CountryCode":"HR","CountryName":"Croatia","Confirmed":"0","Deaths":"0","Latitude":"45.1","Longitude":"15.2","Population":"4130304"},{"Date":"2020-01-04","CountryCode":"ID","CountryName":"Indonesia","Confirmed":"0","Deaths":"0","Latitude":"-0.789275","Longitude":"113.921327","Population":"270625568"},{"Date":"2020-01-04","CountryCode":"IE","CountryName":"Ireland","Confirmed":"0","Deaths":"0","Latitude":"53.41291","Longitude":"-8.24389","Population":"4882495"},{"Date":"2020-01-04","CountryCode":"IL","CountryName":"Israel","Confirmed":"0","Deaths":"0","Latitude":"31.046051","Longitude":"34.851612","Population":"8519377"},{"Date":"2020-01-04","CountryCode":"IN","CountryName":"India","Confirmed":"0","Deaths":"0","Latitude":"20.593684","Longitude":"78.96288","Population":"1366417754"},{"Date":"2020-01-04","CountryCode":"IQ","CountryName":"Iraq","Confirmed":"0","Deaths":"0","Latitude":"33.223191","Longitude":"43.679291","Population":"39309783"},{"Date":"2020-01-04","CountryCode":"IR","CountryName":"Iran","Confirmed":"0","Deaths":"0","Latitude":"32.427908","Longitude":"53.688046","Population":"82913906"},{"Date":"2020-01-04","CountryCode":"IS","CountryName":"Iceland","Confirmed":"0","Deaths":"0","Latitude":"64.963051","Longitude":"-19.020835","Population":"339031"},{"Date":"2020-01-04","CountryCode":"IT","CountryName":"Italy","Confirmed":"0","Deaths":"0","Latitude":"41.87194","Longitude":"12.56738","Population":"60550075"},{"Date":"2020-01-04","CountryCode":"JP","CountryName":"Japan","Confirmed":"0","Deaths":"0","Latitude":"36.204824","Longitude":"138.252924","Population":"126860301"},{"Date":"2020-01-04","CountryCode":"KH","CountryName":"Cambodia","Confirmed":"0","Deaths":"0","Latitude":"12.565679","Longitude":"104.990963","Population":"16486542"},{"Date":"2020-01-04","CountryCode":"KR","CountryName":"South Korea","Confirmed":"0","Deaths":"0","Latitude":"35.907757","Longitude":"127.766922","Population":"51225308"},{"Date":"2020-01-04","CountryCode":"KW","CountryName":"Kuwait","Confirmed":"0","Deaths":"0","Latitude":"29.31166","Longitude":"47.481766","Population":"4207083"},{"Date":"2020-01-04","CountryCode":"LB","CountryName":"Lebanon","Confirmed":"0","Deaths":"0","Latitude":"33.854721","Longitude":"35.862285","Population":"6855713"},{"Date":"2020-01-04","CountryCode":"LK","CountryName":"Sri Lanka","Confirmed":"0","Deaths":"0","Latitude":"7.873054","Longitude":"80.771797","Population":"21323733"},{"Date":"2020-01-04","CountryCode":"LT","CountryName":"Lithuania","Confirmed":"0","Deaths":"0","Latitude":"55.169438","Longitude":"23.881275","Population":"2759627"},{"Date":"2020-01-04","CountryCode":"LU","CountryName":"Luxembourg","Confirmed":"0","Deaths":"0","Latitude":"49.815273","Longitude":"6.129583","Population":"615729"},{"Date":"2020-01-04","CountryCode":"MC","CountryName":"Monaco","Confirmed":"0","Deaths":"0","Latitude":"43.750298","Longitude":"7.412841","Population":"38964"},{"Date":"2020-01-04","CountryCode":"MK","CountryName":"Macedonia","Confirmed":"0","Deaths":"0","Latitude":"41.608635","Longitude":"21.745275","Population":"2083459"},{"Date":"2020-01-04","CountryCode":"MX","CountryName":"Mexico","Confirmed":"0","Deaths":"0","Latitude":"23.634501","Longitude":"-102.552784","Population":"127575529"},{"Date":"2020-01-04","CountryCode":"MY","CountryName":"Malaysia","Confirmed":"0","Deaths":"0","Latitude":"4.210484","Longitude":"101.975766","Population":"31949777"},{"Date":"2020-01-04","CountryCode":"NG","CountryName":"Nigeria","Confirmed":"0","Deaths":"0","Latitude":"9.081999","Longitude":"8.675277","Population":"200963599"},{"Date":"2020-01-04","CountryCode":"NL","CountryName":"Netherlands","Confirmed":"0","Deaths":"0","Latitude":"52.132633","Longitude":"5.291266","Population":"17097130"},{"Date":"2020-01-04","CountryCode":"NO","CountryName":"Norway","Confirmed":"0","Deaths":"0","Latitude":"60.472024","Longitude":"8.468946","Population":"5378857"},{"Date":"2020-01-04","CountryCode":"NP","CountryName":"Nepal","Confirmed":"0","Deaths":"0","Latitude":"28.394857","Longitude":"84.124008","Population":"28608710"},{"Date":"2020-01-04","CountryCode":"NZ","CountryName":"New Zealand","Confirmed":"0","Deaths":"0","Latitude":"-40.900557","Longitude":"174.885971","Population":"4783063"},{"Date":"2020-01-04","CountryCode":"OM","CountryName":"Oman","Confirmed":"0","Deaths":"0","Latitude":"21.512583","Longitude":"55.923255","Population":"4974986"},{"Date":"2020-01-04","CountryCode":"PH","CountryName":"Philippines","Confirmed":"0","Deaths":"0","Latitude":"12.879721","Longitude":"121.774017","Population":"108116615"},{"Date":"2020-01-04","CountryCode":"PK","CountryName":"Pakistan","Confirmed":"0","Deaths":"0","Latitude":"30.375321","Longitude":"69.345116","Population":"216565318"},{"Date":"2020-01-04","CountryCode":"QA","CountryName":"Qatar","Confirmed":"0","Deaths":"0","Latitude":"25.354826","Longitude":"51.183884","Population":"2832067"},{"Date":"2020-01-04","CountryCode":"RO","CountryName":"Romania","Confirmed":"0","Deaths":"0","Latitude":"45.943161","Longitude":"24.96676","Population":"19364557"},{"Date":"2020-01-04","CountryCode":"RU","CountryName":"Russia","Confirmed":"0","Deaths":"0","Latitude":"61.52401","Longitude":"105.318756","Population":"145872256"},{"Date":"2020-01-04","CountryCode":"SE","CountryName":"Sweden","Confirmed":"0","Deaths":"0","Latitude":"60.128161","Longitude":"18.643501","Population":"10036379"},{"Date":"2020-01-04","CountryCode":"SG","CountryName":"Singapore","Confirmed":"0","Deaths":"0","Latitude":"1.352083","Longitude":"103.819836","Population":"5804337"},{"Date":"2020-01-04","CountryCode":"SM","CountryName":"San Marino","Confirmed":"0","Deaths":"0","Latitude":"43.94236","Longitude":"12.457777","Population":"33860"},{"Date":"2020-01-04","CountryCode":"TH","CountryName":"Thailand","Confirmed":"0","Deaths":"0","Latitude":"15.870032","Longitude":"100.992541","Population":"69037513"},{"Date":"2020-01-04","CountryCode":"TW","CountryName":"Taiwan","Confirmed":"0","Deaths":"0","Latitude":"23.69781","Longitude":"120.960515","Population":"23773876"},{"Date":"2020-01-04","CountryCode":"US","CountryName":"United States of America","Confirmed":"0","Deaths":"0","Latitude":"37.09024","Longitude":"-95.712891","Population":"329064917"},{"Date":"2020-01-04","CountryCode":"VN","CountryName":"Vietnam","Confirmed":"0","Deaths":"0","Latitude":"14.058324","Longitude":"108.277199","Population":"96462106"},{"Date":"2020-01-05","CountryCode":"AE","CountryName":"United Arab Emirates","Confirmed":"0","Deaths":"0","Latitude":"23.424076","Longitude":"53.847818","Population":"9770529"},{"Date":"2020-01-05","CountryCode":"AF","CountryName":"Afghanistan","Confirmed":"0","Deaths":"0","Latitude":"33.93911","Longitude":"67.709953","Population":"38041754"},{"Date":"2020-01-05","CountryCode":"AM","CountryName":"Armenia","Confirmed":"0","Deaths":"0","Latitude":"40.069099","Longitude":"45.038189","Population":"2957731"},{"Date":"2020-01-05","CountryCode":"AT","CountryName":"Austria","Confirmed":"0","Deaths":"0","Latitude":"47.516231","Longitude":"14.550072","Population":"8955102"},{"Date":"2020-01-05","CountryCode":"AU","CountryName":"Australia","Confirmed":"0","Deaths":"0","Latitude":"-25.274398","Longitude":"133.775136","Population":"25203198"},{"Date":"2020-01-05","CountryCode":"AZ","CountryName":"Azerbaijan","Confirmed":"0","Deaths":"0","Latitude":"40.143105","Longitude":"47.576927","Population":"10047718"},{"Date":"2020-01-05","CountryCode":"BE","CountryName":"Belgium","Confirmed":"0","Deaths":"0","Latitude":"50.503887","Longitude":"4.469936","Population":"11539328"},{"Date":"2020-01-05","CountryCode":"BH","CountryName":"Bahrain","Confirmed":"0","Deaths":"0","Latitude":"25.930414","Longitude":"50.637772","Population":"1641172"},{"Date":"2020-01-05","CountryCode":"BR","CountryName":"Brazil","Confirmed":"0","Deaths":"0","Latitude":"-14.235004","Longitude":"-51.92528","Population":"211049527"},{"Date":"2020-01-05","CountryCode":"BY","CountryName":"Belarus","Confirmed":"0","Deaths":"0","Latitude":"53.709807","Longitude":"27.953389","Population":"9452411"},{"Date":"2020-01-05","CountryCode":"CA","CountryName":"Canada","Confirmed":"0","Deaths":"0","Latitude":"56.130366","Longitude":"-106.346771","Population":"37411047"},{"Date":"2020-01-05","CountryCode":"CH","CountryName":"Switzerland","Confirmed":"0","Deaths":"0","Latitude":"46.818188","Longitude":"8.227512","Population":"8591365"},{"Date":"2020-01-05","CountryCode":"CN","CountryName":"China","Confirmed":"59","Deaths":"0","Latitude":"35.86166","Longitude":"104.195397","Population":"1433783686"},{"Date":"2020-01-05","CountryCode":"CZ","CountryName":"Czech Republic","Confirmed":"0","Deaths":"0","Latitude":"49.817492","Longitude":"15.472962","Population":"10689209"},{"Date":"2020-01-05","CountryCode":"DE","CountryName":"Germany","Confirmed":"0","Deaths":"0","Latitude":"51.165691","Longitude":"10.451526","Population":"83517045"},{"Date":"2020-01-05","CountryCode":"DK","CountryName":"Denmark","Confirmed":"0","Deaths":"0","Latitude":"56.26392","Longitude":"9.501785","Population":"5771876"},{"Date":"2020-01-05","CountryCode":"DO","CountryName":"Dominican Republic","Confirmed":"0","Deaths":"0","Latitude":"18.735693","Longitude":"-70.162651","Population":"10738958"},{"Date":"2020-01-05","CountryCode":"DZ","CountryName":"Algeria","Confirmed":"0","Deaths":"0","Latitude":"28.033886","Longitude":"1.659626","Population":"43053054"},{"Date":"2020-01-05","CountryCode":"EC","CountryName":"Ecuador","Confirmed":"0","Deaths":"0","Latitude":"-1.831239","Longitude":"-78.183406","Population":"17373662"},{"Date":"2020-01-05","CountryCode":"EE","CountryName":"Estonia","Confirmed":"0","Deaths":"0","Latitude":"58.595272","Longitude":"25.013607","Population":"1325648"},{"Date":"2020-01-05","CountryCode":"EG","CountryName":"Egypt","Confirmed":"0","Deaths":"0","Latitude":"26.820553","Longitude":"30.802498","Population":"100388073"},{"Date":"2020-01-05","CountryCode":"ES","CountryName":"Spain","Confirmed":"0","Deaths":"0","Latitude":"40.463667","Longitude":"-3.74922","Population":"46736776"},{"Date":"2020-01-05","CountryCode":"FI","CountryName":"Finland","Confirmed":"0","Deaths":"0","Latitude":"61.92411","Longitude":"25.748151","Population":"5532156"},{"Date":"2020-01-05","CountryCode":"FR","CountryName":"France","Confirmed":"0","Deaths":"0","Latitude":"46.227638","Longitude":"2.213749","Population":"65129728"},{"Date":"2020-01-05","CountryCode":"GB","CountryName":"United Kingdom","Confirmed":"0","Deaths":"0","Latitude":"55.378051","Longitude":"-3.435973","Population":"67530172"},{"Date":"2020-01-05","CountryCode":"GE","CountryName":"Georgia","Confirmed":"0","Deaths":"0","Latitude":"42.315407","Longitude":"43.356892","Population":"3996765"},{"Date":"2020-01-05","CountryCode":"GR","CountryName":"Greece","Confirmed":"0","Deaths":"0","Latitude":"39.074208","Longitude":"21.824312","Population":"10473455"},{"Date":"2020-01-05","CountryCode":"HR","CountryName":"Croatia","Confirmed":"0","Deaths":"0","Latitude":"45.1","Longitude":"15.2","Population":"4130304"},{"Date":"2020-01-05","CountryCode":"ID","CountryName":"Indonesia","Confirmed":"0","Deaths":"0","Latitude":"-0.789275","Longitude":"113.921327","Population":"270625568"},{"Date":"2020-01-05","CountryCode":"IE","CountryName":"Ireland","Confirmed":"0","Deaths":"0","Latitude":"53.41291","Longitude":"-8.24389","Population":"4882495"},{"Date":"2020-01-05","CountryCode":"IL","CountryName":"Israel","Confirmed":"0","Deaths":"0","Latitude":"31.046051","Longitude":"34.851612","Population":"8519377"},{"Date":"2020-01-05","CountryCode":"IN","CountryName":"India","Confirmed":"0","Deaths":"0","Latitude":"20.593684","Longitude":"78.96288","Population":"1366417754"},{"Date":"2020-01-05","CountryCode":"IQ","CountryName":"Iraq","Confirmed":"0","Deaths":"0","Latitude":"33.223191","Longitude":"43.679291","Population":"39309783"},{"Date":"2020-01-05","CountryCode":"IR","CountryName":"Iran","Confirmed":"0","Deaths":"0","Latitude":"32.427908","Longitude":"53.688046","Population":"82913906"},{"Date":"2020-01-05","CountryCode":"IS","CountryName":"Iceland","Confirmed":"0","Deaths":"0","Latitude":"64.963051","Longitude":"-19.020835","Population":"339031"},{"Date":"2020-01-05","CountryCode":"IT","CountryName":"Italy","Confirmed":"0","Deaths":"0","Latitude":"41.87194","Longitude":"12.56738","Population":"60550075"},{"Date":"2020-01-05","CountryCode":"JP","CountryName":"Japan","Confirmed":"0","Deaths":"0","Latitude":"36.204824","Longitude":"138.252924","Population":"126860301"},{"Date":"2020-01-05","CountryCode":"KH","CountryName":"Cambodia","Confirmed":"0","Deaths":"0","Latitude":"12.565679","Longitude":"104.990963","Population":"16486542"},{"Date":"2020-01-05","CountryCode":"KR","CountryName":"South Korea","Confirmed":"0","Deaths":"0","Latitude":"35.907757","Longitude":"127.766922","Population":"51225308"},{"Date":"2020-01-05","CountryCode":"KW","CountryName":"Kuwait","Confirmed":"0","Deaths":"0","Latitude":"29.31166","Longitude":"47.481766","Population":"4207083"},{"Date":"2020-01-05","CountryCode":"LB","CountryName":"Lebanon","Confirmed":"0","Deaths":"0","Latitude":"33.854721","Longitude":"35.862285","Population":"6855713"},{"Date":"2020-01-05","CountryCode":"LK","CountryName":"Sri Lanka","Confirmed":"0","Deaths":"0","Latitude":"7.873054","Longitude":"80.771797","Population":"21323733"},{"Date":"2020-01-05","CountryCode":"LT","CountryName":"Lithuania","Confirmed":"0","Deaths":"0","Latitude":"55.169438","Longitude":"23.881275","Population":"2759627"},{"Date":"2020-01-05","CountryCode":"LU","CountryName":"Luxembourg","Confirmed":"0","Deaths":"0","Latitude":"49.815273","Longitude":"6.129583","Population":"615729"},{"Date":"2020-01-05","CountryCode":"MC","CountryName":"Monaco","Confirmed":"0","Deaths":"0","Latitude":"43.750298","Longitude":"7.412841","Population":"38964"},{"Date":"2020-01-05","CountryCode":"MK","CountryName":"Macedonia","Confirmed":"0","Deaths":"0","Latitude":"41.608635","Longitude":"21.745275","Population":"2083459"},{"Date":"2020-01-05","CountryCode":"MX","CountryName":"Mexico","Confirmed":"0","Deaths":"0","Latitude":"23.634501","Longitude":"-102.552784","Population":"127575529"},{"Date":"2020-01-05","CountryCode":"MY","CountryName":"Malaysia","Confirmed":"0","Deaths":"0","Latitude":"4.210484","Longitude":"101.975766","Population":"31949777"},{"Date":"2020-01-05","CountryCode":"NG","CountryName":"Nigeria","Confirmed":"0","Deaths":"0","Latitude":"9.081999","Longitude":"8.675277","Population":"200963599"},{"Date":"2020-01-05","CountryCode":"NL","CountryName":"Netherlands","Confirmed":"0","Deaths":"0","Latitude":"52.132633","Longitude":"5.291266","Population":"17097130"},{"Date":"2020-01-05","CountryCode":"NO","CountryName":"Norway","Confirmed":"0","Deaths":"0","Latitude":"60.472024","Longitude":"8.468946","Population":"5378857"},{"Date":"2020-01-05","CountryCode":"NP","CountryName":"Nepal","Confirmed":"0","Deaths":"0","Latitude":"28.394857","Longitude":"84.124008","Population":"28608710"},{"Date":"2020-01-05","CountryCode":"NZ","CountryName":"New Zealand","Confirmed":"0","Deaths":"0","Latitude":"-40.900557","Longitude":"174.885971","Population":"4783063"},{"Date":"2020-01-05","CountryCode":"OM","CountryName":"Oman","Confirmed":"0","Deaths":"0","Latitude":"21.512583","Longitude":"55.923255","Population":"4974986"},{"Date":"2020-01-05","CountryCode":"PH","CountryName":"Philippines","Confirmed":"0","Deaths":"0","Latitude":"12.879721","Longitude":"121.774017","Population":"108116615"},{"Date":"2020-01-05","CountryCode":"PK","CountryName":"Pakistan","Confirmed":"0","Deaths":"0","Latitude":"30.375321","Longitude":"69.345116","Population":"216565318"},{"Date":"2020-01-05","CountryCode":"QA","CountryName":"Qatar","Confirmed":"0","Deaths":"0","Latitude":"25.354826","Longitude":"51.183884","Population":"2832067"},{"Date":"2020-01-05","CountryCode":"RO","CountryName":"Romania","Confirmed":"0","Deaths":"0","Latitude":"45.943161","Longitude":"24.96676","Population":"19364557"},{"Date":"2020-01-05","CountryCode":"RU","CountryName":"Russia","Confirmed":"0","Deaths":"0","Latitude":"61.52401","Longitude":"105.318756","Population":"145872256"},{"Date":"2020-01-05","CountryCode":"SE","CountryName":"Sweden","Confirmed":"0","Deaths":"0","Latitude":"60.128161","Longitude":"18.643501","Population":"10036379"},{"Date":"2020-01-05","CountryCode":"SG","CountryName":"Singapore","Confirmed":"0","Deaths":"0","Latitude":"1.352083","Longitude":"103.819836","Population":"5804337"},{"Date":"2020-01-05","CountryCode":"SM","CountryName":"San Marino","Confirmed":"0","Deaths":"0","Latitude":"43.94236","Longitude":"12.457777","Population":"33860"},{"Date":"2020-01-05","CountryCode":"TH","CountryName":"Thailand","Confirmed":"0","Deaths":"0","Latitude":"15.870032","Longitude":"100.992541","Population":"69037513"},{"Date":"2020-01-05","CountryCode":"TW","CountryName":"Taiwan","Confirmed":"0","Deaths":"0","Latitude":"23.69781","Longitude":"120.960515","Population":"23773876"},{"Date":"2020-01-05","CountryCode":"US","CountryName":"United States of America","Confirmed":"0","Deaths":"0","Latitude":"37.09024","Longitude":"-95.712891","Population":"329064917"},{"Date":"2020-01-05","CountryCode":"VN","CountryName":"Vietnam","Confirmed":"0","Deaths":"0","Latitude":"14.058324","Longitude":"108.277199","Population":"96462106"},{"Date":"2020-01-06","CountryCode":"AE","CountryName":"United Arab Emirates","Confirmed":"0","Deaths":"0","Latitude":"23.424076","Longitude":"53.847818","Population":"9770529"},{"Date":"2020-01-06","CountryCode":"AF","CountryName":"Afghanistan","Confirmed":"0","Deaths":"0","Latitude":"33.93911","Longitude":"67.709953","Population":"38041754"},{"Date":"2020-01-06","CountryCode":"AM","CountryName":"Armenia","Confirmed":"0","Deaths":"0","Latitude":"40.069099","Longitude":"45.038189","Population":"2957731"},{"Date":"2020-01-06","CountryCode":"AT","CountryName":"Austria","Confirmed":"0","Deaths":"0","Latitude":"47.516231","Longitude":"14.550072","Population":"8955102"},{"Date":"2020-01-06","CountryCode":"AU","CountryName":"Australia","Confirmed":"0","Deaths":"0","Latitude":"-25.274398","Longitude":"133.775136","Population":"25203198"},{"Date":"2020-01-06","CountryCode":"AZ","CountryName":"Azerbaijan","Confirmed":"0","Deaths":"0","Latitude":"40.143105","Longitude":"47.576927","Population":"10047718"},{"Date":"2020-01-06","CountryCode":"BE","CountryName":"Belgium","Confirmed":"0","Deaths":"0","Latitude":"50.503887","Longitude":"4.469936","Population":"11539328"},{"Date":"2020-01-06","CountryCode":"BH","CountryName":"Bahrain","Confirmed":"0","Deaths":"0","Latitude":"25.930414","Longitude":"50.637772","Population":"1641172"},{"Date":"2020-01-06","CountryCode":"BR","CountryName":"Brazil","Confirmed":"0","Deaths":"0","Latitude":"-14.235004","Longitude":"-51.92528","Population":"211049527"},{"Date":"2020-01-06","CountryCode":"BY","CountryName":"Belarus","Confirmed":"0","Deaths":"0","Latitude":"53.709807","Longitude":"27.953389","Population":"9452411"},{"Date":"2020-01-06","CountryCode":"CA","CountryName":"Canada","Confirmed":"0","Deaths":"0","Latitude":"56.130366","Longitude":"-106.346771","Population":"37411047"},{"Date":"2020-01-06","CountryCode":"CH","CountryName":"Switzerland","Confirmed":"0","Deaths":"0","Latitude":"46.818188","Longitude":"8.227512","Population":"8591365"},{"Date":"2020-01-06","CountryCode":"CN","CountryName":"China","Confirmed":"59","Deaths":"0","Latitude":"35.86166","Longitude":"104.195397","Population":"1433783686"},{"Date":"2020-01-06","CountryCode":"CZ","CountryName":"Czech Republic","Confirmed":"0","Deaths":"0","Latitude":"49.817492","Longitude":"15.472962","Population":"10689209"},{"Date":"2020-01-06","CountryCode":"DE","CountryName":"Germany","Confirmed":"0","Deaths":"0","Latitude":"51.165691","Longitude":"10.451526","Population":"83517045"},{"Date":"2020-01-06","CountryCode":"DK","CountryName":"Denmark","Confirmed":"0","Deaths":"0","Latitude":"56.26392","Longitude":"9.501785","Population":"5771876"},{"Date":"2020-01-06","CountryCode":"DO","CountryName":"Dominican Republic","Confirmed":"0","Deaths":"0","Latitude":"18.735693","Longitude":"-70.162651","Population":"10738958"},{"Date":"2020-01-06","CountryCode":"DZ","CountryName":"Algeria","Confirmed":"0","Deaths":"0","Latitude":"28.033886","Longitude":"1.659626","Population":"43053054"},{"Date":"2020-01-06","CountryCode":"EC","CountryName":"Ecuador","Confirmed":"0","Deaths":"0","Latitude":"-1.831239","Longitude":"-78.183406","Population":"17373662"},{"Date":"2020-01-06","CountryCode":"EE","CountryName":"Estonia","Confirmed":"0","Deaths":"0","Latitude":"58.595272","Longitude":"25.013607","Population":"1325648"},{"Date":"2020-01-06","CountryCode":"EG","CountryName":"Egypt","Confirmed":"0","Deaths":"0","Latitude":"26.820553","Longitude":"30.802498","Population":"100388073"},{"Date":"2020-01-06","CountryCode":"ES","CountryName":"Spain","Confirmed":"0","Deaths":"0","Latitude":"40.463667","Longitude":"-3.74922","Population":"46736776"},{"Date":"2020-01-06","CountryCode":"FI","CountryName":"Finland","Confirmed":"0","Deaths":"0","Latitude":"61.92411","Longitude":"25.748151","Population":"5532156"},{"Date":"2020-01-06","CountryCode":"FR","CountryName":"France","Confirmed":"0","Deaths":"0","Latitude":"46.227638","Longitude":"2.213749","Population":"65129728"},{"Date":"2020-01-06","CountryCode":"GB","CountryName":"United Kingdom","Confirmed":"0","Deaths":"0","Latitude":"55.378051","Longitude":"-3.435973","Population":"67530172"},{"Date":"2020-01-06","CountryCode":"GE","CountryName":"Georgia","Confirmed":"0","Deaths":"0","Latitude":"42.315407","Longitude":"43.356892","Population":"3996765"},{"Date":"2020-01-06","CountryCode":"GR","CountryName":"Greece","Confirmed":"0","Deaths":"0","Latitude":"39.074208","Longitude":"21.824312","Population":"10473455"},{"Date":"2020-01-06","CountryCode":"HR","CountryName":"Croatia","Confirmed":"0","Deaths":"0","Latitude":"45.1","Longitude":"15.2","Population":"4130304"},{"Date":"2020-01-06","CountryCode":"ID","CountryName":"Indonesia","Confirmed":"0","Deaths":"0","Latitude":"-0.789275","Longitude":"113.921327","Population":"270625568"},{"Date":"2020-01-06","CountryCode":"IE","CountryName":"Ireland","Confirmed":"0","Deaths":"0","Latitude":"53.41291","Longitude":"-8.24389","Population":"4882495"},{"Date":"2020-01-06","CountryCode":"IL","CountryName":"Israel","Confirmed":"0","Deaths":"0","Latitude":"31.046051","Longitude":"34.851612","Population":"8519377"},{"Date":"2020-01-06","CountryCode":"IN","CountryName":"India","Confirmed":"0","Deaths":"0","Latitude":"20.593684","Longitude":"78.96288","Population":"1366417754"},{"Date":"2020-01-06","CountryCode":"IQ","CountryName":"Iraq","Confirmed":"0","Deaths":"0","Latitude":"33.223191","Longitude":"43.679291","Population":"39309783"},{"Date":"2020-01-06","CountryCode":"IR","CountryName":"Iran","Confirmed":"0","Deaths":"0","Latitude":"32.427908","Longitude":"53.688046","Population":"82913906"},{"Date":"2020-01-06","CountryCode":"IS","CountryName":"Iceland","Confirmed":"0","Deaths":"0","Latitude":"64.963051","Longitude":"-19.020835","Population":"339031"},{"Date":"2020-01-06","CountryCode":"IT","CountryName":"Italy","Confirmed":"0","Deaths":"0","Latitude":"41.87194","Longitude":"12.56738","Population":"60550075"},{"Date":"2020-01-06","CountryCode":"JP","CountryName":"Japan","Confirmed":"0","Deaths":"0","Latitude":"36.204824","Longitude":"138.252924","Population":"126860301"},{"Date":"2020-01-06","CountryCode":"KH","CountryName":"Cambodia","Confirmed":"0","Deaths":"0","Latitude":"12.565679","Longitude":"104.990963","Population":"16486542"},{"Date":"2020-01-06","CountryCode":"KR","CountryName":"South Korea","Confirmed":"0","Deaths":"0","Latitude":"35.907757","Longitude":"127.766922","Population":"51225308"},{"Date":"2020-01-06","CountryCode":"KW","CountryName":"Kuwait","Confirmed":"0","Deaths":"0","Latitude":"29.31166","Longitude":"47.481766","Population":"4207083"},{"Date":"2020-01-06","CountryCode":"LB","CountryName":"Lebanon","Confirmed":"0","Deaths":"0","Latitude":"33.854721","Longitude":"35.862285","Population":"6855713"},{"Date":"2020-01-06","CountryCode":"LK","CountryName":"Sri Lanka","Confirmed":"0","Deaths":"0","Latitude":"7.873054","Longitude":"80.771797","Population":"21323733"},{"Date":"2020-01-06","CountryCode":"LT","CountryName":"Lithuania","Confirmed":"0","Deaths":"0","Latitude":"55.169438","Longitude":"23.881275","Population":"2759627"},{"Date":"2020-01-06","CountryCode":"LU","CountryName":"Luxembourg","Confirmed":"0","Deaths":"0","Latitude":"49.815273","Longitude":"6.129583","Population":"615729"},{"Date":"2020-01-06","CountryCode":"MC","CountryName":"Monaco","Confirmed":"0","Deaths":"0","Latitude":"43.750298","Longitude":"7.412841","Population":"38964"},{"Date":"2020-01-06","CountryCode":"MK","CountryName":"Macedonia","Confirmed":"0","Deaths":"0","Latitude":"41.608635","Longitude":"21.745275","Population":"2083459"},{"Date":"2020-01-06","CountryCode":"MX","CountryName":"Mexico","Confirmed":"0","Deaths":"0","Latitude":"23.634501","Longitude":"-102.552784","Population":"127575529"},{"Date":"2020-01-06","CountryCode":"MY","CountryName":"Malaysia","Confirmed":"0","Deaths":"0","Latitude":"4.210484","Longitude":"101.975766","Population":"31949777"},{"Date":"2020-01-06","CountryCode":"NG","CountryName":"Nigeria","Confirmed":"0","Deaths":"0","Latitude":"9.081999","Longitude":"8.675277","Population":"200963599"},{"Date":"2020-01-06","CountryCode":"NL","CountryName":"Netherlands","Confirmed":"0","Deaths":"0","Latitude":"52.132633","Longitude":"5.291266","Population":"17097130"},{"Date":"2020-01-06","CountryCode":"NO","CountryName":"Norway","Confirmed":"0","Deaths":"0","Latitude":"60.472024","Longitude":"8.468946","Population":"5378857"},{"Date":"2020-01-06","CountryCode":"NP","CountryName":"Nepal","Confirmed":"0","Deaths":"0","Latitude":"28.394857","Longitude":"84.124008","Population":"28608710"},{"Date":"2020-01-06","CountryCode":"NZ","CountryName":"New Zealand","Confirmed":"0","Deaths":"0","Latitude":"-40.900557","Longitude":"174.885971","Population":"4783063"},{"Date":"2020-01-06","CountryCode":"OM","CountryName":"Oman","Confirmed":"0","Deaths":"0","Latitude":"21.512583","Longitude":"55.923255","Population":"4974986"},{"Date":"2020-01-06","CountryCode":"PH","CountryName":"Philippines","Confirmed":"0","Deaths":"0","Latitude":"12.879721","Longitude":"121.774017","Population":"108116615"},{"Date":"2020-01-06","CountryCode":"PK","CountryName":"Pakistan","Confirmed":"0","Deaths":"0","Latitude":"30.375321","Longitude":"69.345116","Population":"216565318"},{"Date":"2020-01-06","CountryCode":"QA","CountryName":"Qatar","Confirmed":"0","Deaths":"0","Latitude":"25.354826","Longitude":"51.183884","Population":"2832067"},{"Date":"2020-01-06","CountryCode":"RO","CountryName":"Romania","Confirmed":"0","Deaths":"0","Latitude":"45.943161","Longitude":"24.96676","Population":"19364557"},{"Date":"2020-01-06","CountryCode":"RU","CountryName":"Russia","Confirmed":"0","Deaths":"0","Latitude":"61.52401","Longitude":"105.318756","Population":"145872256"},{"Date":"2020-01-06","CountryCode":"SE","CountryName":"Sweden","Confirmed":"0","Deaths":"0","Latitude":"60.128161","Longitude":"18.643501","Population":"10036379"},{"Date":"2020-01-06","CountryCode":"SG","CountryName":"Singapore","Confirmed":"0","Deaths":"0","Latitude":"1.352083","Longitude":"103.819836","Population":"5804337"},{"Date":"2020-01-06","CountryCode":"SM","CountryName":"San Marino","Confirmed":"0","Deaths":"0","Latitude":"43.94236","Longitude":"12.457777","Population":"33860"},{"Date":"2020-01-06","CountryCode":"TH","CountryName":"Thailand","Confirmed":"0","Deaths":"0","Latitude":"15.870032","Longitude":"100.992541","Population":"69037513"},{"Date":"2020-01-06","CountryCode":"TW","CountryName":"Taiwan","Confirmed":"0","Deaths":"0","Latitude":"23.69781","Longitude":"120.960515","Population":"23773876"},{"Date":"2020-01-06","CountryCode":"US","CountryName":"United States of America","Confirmed":"0","Deaths":"0","Latitude":"37.09024","Longitude":"-95.712891","Population":"329064917"},{"Date":"2020-01-06","CountryCode":"VN","CountryName":"Vietnam","Confirmed":"0","Deaths":"0","Latitude":"14.058324","Longitude":"108.277199","Population":"96462106"},{"Date":"2020-01-07","CountryCode":"AE","CountryName":"United Arab Emirates","Confirmed":"0","Deaths":"0","Latitude":"23.424076","Longitude":"53.847818","Population":"9770529"},{"Date":"2020-01-07","CountryCode":"AF","CountryName":"Afghanistan","Confirmed":"0","Deaths":"0","Latitude":"33.93911","Longitude":"67.709953","Population":"38041754"},{"Date":"2020-01-07","CountryCode":"AM","CountryName":"Armenia","Confirmed":"0","Deaths":"0","Latitude":"40.069099","Longitude":"45.038189","Population":"2957731"},{"Date":"2020-01-07","CountryCode":"AT","CountryName":"Austria","Confirmed":"0","Deaths":"0","Latitude":"47.516231","Longitude":"14.550072","Population":"8955102"},{"Date":"2020-01-07","CountryCode":"AU","CountryName":"Australia","Confirmed":"0","Deaths":"0","Latitude":"-25.274398","Longitude":"133.775136","Population":"25203198"},{"Date":"2020-01-07","CountryCode":"AZ","CountryName":"Azerbaijan","Confirmed":"0","Deaths":"0","Latitude":"40.143105","Longitude":"47.576927","Population":"10047718"},{"Date":"2020-01-07","CountryCode":"BE","CountryName":"Belgium","Confirmed":"0","Deaths":"0","Latitude":"50.503887","Longitude":"4.469936","Population":"11539328"},{"Date":"2020-01-07","CountryCode":"BH","CountryName":"Bahrain","Confirmed":"0","Deaths":"0","Latitude":"25.930414","Longitude":"50.637772","Population":"1641172"},{"Date":"2020-01-07","CountryCode":"BR","CountryName":"Brazil","Confirmed":"0","Deaths":"0","Latitude":"-14.235004","Longitude":"-51.92528","Population":"211049527"},{"Date":"2020-01-07","CountryCode":"BY","CountryName":"Belarus","Confirmed":"0","Deaths":"0","Latitude":"53.709807","Longitude":"27.953389","Population":"9452411"},{"Date":"2020-01-07","CountryCode":"CA","CountryName":"Canada","Confirmed":"0","Deaths":"0","Latitude":"56.130366","Longitude":"-106.346771","Population":"37411047"},{"Date":"2020-01-07","CountryCode":"CH","CountryName":"Switzerland","Confirmed":"0","Deaths":"0","Latitude":"46.818188","Longitude":"8.227512","Population":"8591365"},{"Date":"2020-01-07","CountryCode":"CN","CountryName":"China","Confirmed":"59","Deaths":"0","Latitude":"35.86166","Longitude":"104.195397","Population":"1433783686"},{"Date":"2020-01-07","CountryCode":"CZ","CountryName":"Czech Republic","Confirmed":"0","Deaths":"0","Latitude":"49.817492","Longitude":"15.472962","Population":"10689209"},{"Date":"2020-01-07","CountryCode":"DE","CountryName":"Germany","Confirmed":"0","Deaths":"0","Latitude":"51.165691","Longitude":"10.451526","Population":"83517045"},{"Date":"2020-01-07","CountryCode":"DK","CountryName":"Denmark","Confirmed":"0","Deaths":"0","Latitude":"56.26392","Longitude":"9.501785","Population":"5771876"},{"Date":"2020-01-07","CountryCode":"DO","CountryName":"Dominican Republic","Confirmed":"0","Deaths":"0","Latitude":"18.735693","Longitude":"-70.162651","Population":"10738958"},{"Date":"2020-01-07","CountryCode":"DZ","CountryName":"Algeria","Confirmed":"0","Deaths":"0","Latitude":"28.033886","Longitude":"1.659626","Population":"43053054"},{"Date":"2020-01-07","CountryCode":"EC","CountryName":"Ecuador","Confirmed":"0","Deaths":"0","Latitude":"-1.831239","Longitude":"-78.183406","Population":"17373662"},{"Date":"2020-01-07","CountryCode":"EE","CountryName":"Estonia","Confirmed":"0","Deaths":"0","Latitude":"58.595272","Longitude":"25.013607","Population":"1325648"},{"Date":"2020-01-07","CountryCode":"EG","CountryName":"Egypt","Confirmed":"0","Deaths":"0","Latitude":"26.820553","Longitude":"30.802498","Population":"100388073"},{"Date":"2020-01-07","CountryCode":"ES","CountryName":"Spain","Confirmed":"0","Deaths":"0","Latitude":"40.463667","Longitude":"-3.74922","Population":"46736776"},{"Date":"2020-01-07","CountryCode":"FI","CountryName":"Finland","Confirmed":"0","Deaths":"0","Latitude":"61.92411","Longitude":"25.748151","Population":"5532156"},{"Date":"2020-01-07","CountryCode":"FR","CountryName":"France","Confirmed":"0","Deaths":"0","Latitude":"46.227638","Longitude":"2.213749","Population":"65129728"},{"Date":"2020-01-07","CountryCode":"GB","CountryName":"United Kingdom","Confirmed":"0","Deaths":"0","Latitude":"55.378051","Longitude":"-3.435973","Population":"67530172"},{"Date":"2020-01-07","CountryCode":"GE","CountryName":"Georgia","Confirmed":"0","Deaths":"0","Latitude":"42.315407","Longitude":"43.356892","Population":"3996765"},{"Date":"2020-01-07","CountryCode":"GR","CountryName":"Greece","Confirmed":"0","Deaths":"0","Latitude":"39.074208","Longitude":"21.824312","Population":"10473455"},{"Date":"2020-01-07","CountryCode":"HR","CountryName":"Croatia","Confirmed":"0","Deaths":"0","Latitude":"45.1","Longitude":"15.2","Population":"4130304"},{"Date":"2020-01-07","CountryCode":"ID","CountryName":"Indonesia","Confirmed":"0","Deaths":"0","Latitude":"-0.789275","Longitude":"113.921327","Population":"270625568"},{"Date":"2020-01-07","CountryCode":"IE","CountryName":"Ireland","Confirmed":"0","Deaths":"0","Latitude":"53.41291","Longitude":"-8.24389","Population":"4882495"},{"Date":"2020-01-07","CountryCode":"IL","CountryName":"Israel","Confirmed":"0","Deaths":"0","Latitude":"31.046051","Longitude":"34.851612","Population":"8519377"},{"Date":"2020-01-07","CountryCode":"IN","CountryName":"India","Confirmed":"0","Deaths":"0","Latitude":"20.593684","Longitude":"78.96288","Population":"1366417754"},{"Date":"2020-01-07","CountryCode":"IQ","CountryName":"Iraq","Confirmed":"0","Deaths":"0","Latitude":"33.223191","Longitude":"43.679291","Population":"39309783"},{"Date":"2020-01-07","CountryCode":"IR","CountryName":"Iran","Confirmed":"0","Deaths":"0","Latitude":"32.427908","Longitude":"53.688046","Population":"82913906"},{"Date":"2020-01-07","CountryCode":"IS","CountryName":"Iceland","Confirmed":"0","Deaths":"0","Latitude":"64.963051","Longitude":"-19.020835","Population":"339031"},{"Date":"2020-01-07","CountryCode":"IT","CountryName":"Italy","Confirmed":"0","Deaths":"0","Latitude":"41.87194","Longitude":"12.56738","Population":"60550075"},{"Date":"2020-01-07","CountryCode":"JP","CountryName":"Japan","Confirmed":"0","Deaths":"0","Latitude":"36.204824","Longitude":"138.252924","Population":"126860301"},{"Date":"2020-01-07","CountryCode":"KH","CountryName":"Cambodia","Confirmed":"0","Deaths":"0","Latitude":"12.565679","Longitude":"104.990963","Population":"16486542"},{"Date":"2020-01-07","CountryCode":"KR","CountryName":"South Korea","Confirmed":"0","Deaths":"0","Latitude":"35.907757","Longitude":"127.766922","Population":"51225308"},{"Date":"2020-01-07","CountryCode":"KW","CountryName":"Kuwait","Confirmed":"0","Deaths":"0","Latitude":"29.31166","Longitude":"47.481766","Population":"4207083"},{"Date":"2020-01-07","CountryCode":"LB","CountryName":"Lebanon","Confirmed":"0","Deaths":"0","Latitude":"33.854721","Longitude":"35.862285","Population":"6855713"},{"Date":"2020-01-07","CountryCode":"LK","CountryName":"Sri Lanka","Confirmed":"0","Deaths":"0","Latitude":"7.873054","Longitude":"80.771797","Population":"21323733"},{"Date":"2020-01-07","CountryCode":"LT","CountryName":"Lithuania","Confirmed":"0","Deaths":"0","Latitude":"55.169438","Longitude":"23.881275","Population":"2759627"},{"Date":"2020-01-07","CountryCode":"LU","CountryName":"Luxembourg","Confirmed":"0","Deaths":"0","Latitude":"49.815273","Longitude":"6.129583","Population":"615729"},{"Date":"2020-01-07","CountryCode":"MC","CountryName":"Monaco","Confirmed":"0","Deaths":"0","Latitude":"43.750298","Longitude":"7.412841","Population":"38964"},{"Date":"2020-01-07","CountryCode":"MK","CountryName":"Macedonia","Confirmed":"0","Deaths":"0","Latitude":"41.608635","Longitude":"21.745275","Population":"2083459"},{"Date":"2020-01-07","CountryCode":"MX","CountryName":"Mexico","Confirmed":"0","Deaths":"0","Latitude":"23.634501","Longitude":"-102.552784","Population":"127575529"},{"Date":"2020-01-07","CountryCode":"MY","CountryName":"Malaysia","Confirmed":"0","Deaths":"0","Latitude":"4.210484","Longitude":"101.975766","Population":"31949777"},{"Date":"2020-01-07","CountryCode":"NG","CountryName":"Nigeria","Confirmed":"0","Deaths":"0","Latitude":"9.081999","Longitude":"8.675277","Population":"200963599"},{"Date":"2020-01-07","CountryCode":"NL","CountryName":"Netherlands","Confirmed":"0","Deaths":"0","Latitude":"52.132633","Longitude":"5.291266","Population":"17097130"},{"Date":"2020-01-07","CountryCode":"NO","CountryName":"Norway","Confirmed":"0","Deaths":"0","Latitude":"60.472024","Longitude":"8.468946","Population":"5378857"},{"Date":"2020-01-07","CountryCode":"NP","CountryName":"Nepal","Confirmed":"0","Deaths":"0","Latitude":"28.394857","Longitude":"84.124008","Population":"28608710"},{"Date":"2020-01-07","CountryCode":"NZ","CountryName":"New Zealand","Confirmed":"0","Deaths":"0","Latitude":"-40.900557","Longitude":"174.885971","Population":"4783063"},{"Date":"2020-01-07","CountryCode":"OM","CountryName":"Oman","Confirmed":"0","Deaths":"0","Latitude":"21.512583","Longitude":"55.923255","Population":"4974986"},{"Date":"2020-01-07","CountryCode":"PH","CountryName":"Philippines","Confirmed":"0","Deaths":"0","Latitude":"12.879721","Longitude":"121.774017","Population":"108116615"},{"Date":"2020-01-07","CountryCode":"PK","CountryName":"Pakistan","Confirmed":"0","Deaths":"0","Latitude":"30.375321","Longitude":"69.345116","Population":"216565318"},{"Date":"2020-01-07","CountryCode":"QA","CountryName":"Qatar","Confirmed":"0","Deaths":"0","Latitude":"25.354826","Longitude":"51.183884","Population":"2832067"},{"Date":"2020-01-07","CountryCode":"RO","CountryName":"Romania","Confirmed":"0","Deaths":"0","Latitude":"45.943161","Longitude":"24.96676","Population":"19364557"},{"Date":"2020-01-07","CountryCode":"RU","CountryName":"Russia","Confirmed":"0","Deaths":"0","Latitude":"61.52401","Longitude":"105.318756","Population":"145872256"},{"Date":"2020-01-07","CountryCode":"SE","CountryName":"Sweden","Confirmed":"0","Deaths":"0","Latitude":"60.128161","Longitude":"18.643501","Population":"10036379"},{"Date":"2020-01-07","CountryCode":"SG","CountryName":"Singapore","Confirmed":"0","Deaths":"0","Latitude":"1.352083","Longitude":"103.819836","Population":"5804337"},{"Date":"2020-01-07","CountryCode":"SM","CountryName":"San Marino","Confirmed":"0","Deaths":"0","Latitude":"43.94236","Longitude":"12.457777","Population":"33860"},{"Date":"2020-01-07","CountryCode":"TH","CountryName":"Thailand","Confirmed":"0","Deaths":"0","Latitude":"15.870032","Longitude":"100.992541","Population":"69037513"},{"Date":"2020-01-07","CountryCode":"TW","CountryName":"Taiwan","Confirmed":"0","Deaths":"0","Latitude":"23.69781","Longitude":"120.960515","Population":"23773876"},{"Date":"2020-01-07","CountryCode":"US","CountryName":"United States of America","Confirmed":"0","Deaths":"0","Latitude":"37.09024","Longitude":"-95.712891","Population":"329064917"},{"Date":"2020-01-07","CountryCode":"VN","CountryName":"Vietnam","Confirmed":"0","Deaths":"0","Latitude":"14.058324","Longitude":"108.277199","Population":"96462106"},{"Date":"2020-01-08","CountryCode":"AE","CountryName":"United Arab Emirates","Confirmed":"0","Deaths":"0","Latitude":"23.424076","Longitude":"53.847818","Population":"9770529"},{"Date":"2020-01-08","CountryCode":"AF","CountryName":"Afghanistan","Confirmed":"0","Deaths":"0","Latitude":"33.93911","Longitude":"67.709953","Population":"38041754"},{"Date":"2020-01-08","CountryCode":"AM","CountryName":"Armenia","Confirmed":"0","Deaths":"0","Latitude":"40.069099","Longitude":"45.038189","Population":"2957731"},{"Date":"2020-01-08","CountryCode":"AT","CountryName":"Austria","Confirmed":"0","Deaths":"0","Latitude":"47.516231","Longitude":"14.550072","Population":"8955102"},{"Date":"2020-01-08","CountryCode":"AU","CountryName":"Australia","Confirmed":"0","Deaths":"0","Latitude":"-25.274398","Longitude":"133.775136","Population":"25203198"},{"Date":"2020-01-08","CountryCode":"AZ","CountryName":"Azerbaijan","Confirmed":"0","Deaths":"0","Latitude":"40.143105","Longitude":"47.576927","Population":"10047718"},{"Date":"2020-01-08","CountryCode":"BE","CountryName":"Belgium","Confirmed":"0","Deaths":"0","Latitude":"50.503887","Longitude":"4.469936","Population":"11539328"},{"Date":"2020-01-08","CountryCode":"BH","CountryName":"Bahrain","Confirmed":"0","Deaths":"0","Latitude":"25.930414","Longitude":"50.637772","Population":"1641172"},{"Date":"2020-01-08","CountryCode":"BR","CountryName":"Brazil","Confirmed":"0","Deaths":"0","Latitude":"-14.235004","Longitude":"-51.92528","Population":"211049527"},{"Date":"2020-01-08","CountryCode":"BY","CountryName":"Belarus","Confirmed":"0","Deaths":"0","Latitude":"53.709807","Longitude":"27.953389","Population":"9452411"},{"Date":"2020-01-08","CountryCode":"CA","CountryName":"Canada","Confirmed":"0","Deaths":"0","Latitude":"56.130366","Longitude":"-106.346771","Population":"37411047"},{"Date":"2020-01-08","CountryCode":"CH","CountryName":"Switzerland","Confirmed":"0","Deaths":"0","Latitude":"46.818188","Longitude":"8.227512","Population":"8591365"},{"Date":"2020-01-08","CountryCode":"CN","CountryName":"China","Confirmed":"59","Deaths":"0","Latitude":"35.86166","Longitude":"104.195397","Population":"1433783686"},{"Date":"2020-01-08","CountryCode":"CZ","CountryName":"Czech Republic","Confirmed":"0","Deaths":"0","Latitude":"49.817492","Longitude":"15.472962","Population":"10689209"},{"Date":"2020-01-08","CountryCode":"DE","CountryName":"Germany","Confirmed":"0","Deaths":"0","Latitude":"51.165691","Longitude":"10.451526","Population":"83517045"},{"Date":"2020-01-08","CountryCode":"DK","CountryName":"Denmark","Confirmed":"0","Deaths":"0","Latitude":"56.26392","Longitude":"9.501785","Population":"5771876"},{"Date":"2020-01-08","CountryCode":"DO","CountryName":"Dominican Republic","Confirmed":"0","Deaths":"0","Latitude":"18.735693","Longitude":"-70.162651","Population":"10738958"},{"Date":"2020-01-08","CountryCode":"DZ","CountryName":"Algeria","Confirmed":"0","Deaths":"0","Latitude":"28.033886","Longitude":"1.659626","Population":"43053054"},{"Date":"2020-01-08","CountryCode":"EC","CountryName":"Ecuador","Confirmed":"0","Deaths":"0","Latitude":"-1.831239","Longitude":"-78.183406","Population":"17373662"},{"Date":"2020-01-08","CountryCode":"EE","CountryName":"Estonia","Confirmed":"0","Deaths":"0","Latitude":"58.595272","Longitude":"25.013607","Population":"1325648"},{"Date":"2020-01-08","CountryCode":"EG","CountryName":"Egypt","Confirmed":"0","Deaths":"0","Latitude":"26.820553","Longitude":"30.802498","Population":"100388073"},{"Date":"2020-01-08","CountryCode":"ES","CountryName":"Spain","Confirmed":"0","Deaths":"0","Latitude":"40.463667","Longitude":"-3.74922","Population":"46736776"},{"Date":"2020-01-08","CountryCode":"FI","CountryName":"Finland","Confirmed":"0","Deaths":"0","Latitude":"61.92411","Longitude":"25.748151","Population":"5532156"},{"Date":"2020-01-08","CountryCode":"FR","CountryName":"France","Confirmed":"0","Deaths":"0","Latitude":"46.227638","Longitude":"2.213749","Population":"65129728"},{"Date":"2020-01-08","CountryCode":"GB","CountryName":"United Kingdom","Confirmed":"0","Deaths":"0","Latitude":"55.378051","Longitude":"-3.435973","Population":"67530172"},{"Date":"2020-01-08","CountryCode":"GE","CountryName":"Georgia","Confirmed":"0","Deaths":"0","Latitude":"42.315407","Longitude":"43.356892","Population":"3996765"},{"Date":"2020-01-08","CountryCode":"GR","CountryName":"Greece","Confirmed":"0","Deaths":"0","Latitude":"39.074208","Longitude":"21.824312","Population":"10473455"},{"Date":"2020-01-08","CountryCode":"HR","CountryName":"Croatia","Confirmed":"0","Deaths":"0","Latitude":"45.1","Longitude":"15.2","Population":"4130304"},{"Date":"2020-01-08","CountryCode":"ID","CountryName":"Indonesia","Confirmed":"0","Deaths":"0","Latitude":"-0.789275","Longitude":"113.921327","Population":"270625568"},{"Date":"2020-01-08","CountryCode":"IE","CountryName":"Ireland","Confirmed":"0","Deaths":"0","Latitude":"53.41291","Longitude":"-8.24389","Population":"4882495"},{"Date":"2020-01-08","CountryCode":"IL","CountryName":"Israel","Confirmed":"0","Deaths":"0","Latitude":"31.046051","Longitude":"34.851612","Population":"8519377"},{"Date":"2020-01-08","CountryCode":"IN","CountryName":"India","Confirmed":"0","Deaths":"0","Latitude":"20.593684","Longitude":"78.96288","Population":"1366417754"},{"Date":"2020-01-08","CountryCode":"IQ","CountryName":"Iraq","Confirmed":"0","Deaths":"0","Latitude":"33.223191","Longitude":"43.679291","Population":"39309783"},{"Date":"2020-01-08","CountryCode":"IR","CountryName":"Iran","Confirmed":"0","Deaths":"0","Latitude":"32.427908","Longitude":"53.688046","Population":"82913906"},{"Date":"2020-01-08","CountryCode":"IS","CountryName":"Iceland","Confirmed":"0","Deaths":"0","Latitude":"64.963051","Longitude":"-19.020835","Population":"339031"},{"Date":"2020-01-08","CountryCode":"IT","CountryName":"Italy","Confirmed":"0","Deaths":"0","Latitude":"41.87194","Longitude":"12.56738","Population":"60550075"},{"Date":"2020-01-08","CountryCode":"JP","CountryName":"Japan","Confirmed":"0","Deaths":"0","Latitude":"36.204824","Longitude":"138.252924","Population":"126860301"},{"Date":"2020-01-08","CountryCode":"KH","CountryName":"Cambodia","Confirmed":"0","Deaths":"0","Latitude":"12.565679","Longitude":"104.990963","Population":"16486542"},{"Date":"2020-01-08","CountryCode":"KR","CountryName":"South Korea","Confirmed":"0","Deaths":"0","Latitude":"35.907757","Longitude":"127.766922","Population":"51225308"},{"Date":"2020-01-08","CountryCode":"KW","CountryName":"Kuwait","Confirmed":"0","Deaths":"0","Latitude":"29.31166","Longitude":"47.481766","Population":"4207083"},{"Date":"2020-01-08","CountryCode":"LB","CountryName":"Lebanon","Confirmed":"0","Deaths":"0","Latitude":"33.854721","Longitude":"35.862285","Population":"6855713"},{"Date":"2020-01-08","CountryCode":"LK","CountryName":"Sri Lanka","Confirmed":"0","Deaths":"0","Latitude":"7.873054","Longitude":"80.771797","Population":"21323733"},{"Date":"2020-01-08","CountryCode":"LT","CountryName":"Lithuania","Confirmed":"0","Deaths":"0","Latitude":"55.169438","Longitude":"23.881275","Population":"2759627"},{"Date":"2020-01-08","CountryCode":"LU","CountryName":"Luxembourg","Confirmed":"0","Deaths":"0","Latitude":"49.815273","Longitude":"6.129583","Population":"615729"},{"Date":"2020-01-08","CountryCode":"MC","CountryName":"Monaco","Confirmed":"0","Deaths":"0","Latitude":"43.750298","Longitude":"7.412841","Population":"38964"},{"Date":"2020-01-08","CountryCode":"MK","CountryName":"Macedonia","Confirmed":"0","Deaths":"0","Latitude":"41.608635","Longitude":"21.745275","Population":"2083459"},{"Date":"2020-01-08","CountryCode":"MX","CountryName":"Mexico","Confirmed":"0","Deaths":"0","Latitude":"23.634501","Longitude":"-102.552784","Population":"127575529"},{"Date":"2020-01-08","CountryCode":"MY","CountryName":"Malaysia","Confirmed":"0","Deaths":"0","Latitude":"4.210484","Longitude":"101.975766","Population":"31949777"},{"Date":"2020-01-08","CountryCode":"NG","CountryName":"Nigeria","Confirmed":"0","Deaths":"0","Latitude":"9.081999","Longitude":"8.675277","Population":"200963599"},{"Date":"2020-01-08","CountryCode":"NL","CountryName":"Netherlands","Confirmed":"0","Deaths":"0","Latitude":"52.132633","Longitude":"5.291266","Population":"17097130"},{"Date":"2020-01-08","CountryCode":"NO","CountryName":"Norway","Confirmed":"0","Deaths":"0","Latitude":"60.472024","Longitude":"8.468946","Population":"5378857"},{"Date":"2020-01-08","CountryCode":"NP","CountryName":"Nepal","Confirmed":"0","Deaths":"0","Latitude":"28.394857","Longitude":"84.124008","Population":"28608710"},{"Date":"2020-01-08","CountryCode":"NZ","CountryName":"New Zealand","Confirmed":"0","Deaths":"0","Latitude":"-40.900557","Longitude":"174.885971","Population":"4783063"},{"Date":"2020-01-08","CountryCode":"OM","CountryName":"Oman","Confirmed":"0","Deaths":"0","Latitude":"21.512583","Longitude":"55.923255","Population":"4974986"},{"Date":"2020-01-08","CountryCode":"PH","CountryName":"Philippines","Confirmed":"0","Deaths":"0","Latitude":"12.879721","Longitude":"121.774017","Population":"108116615"},{"Date":"2020-01-08","CountryCode":"PK","CountryName":"Pakistan","Confirmed":"0","Deaths":"0","Latitude":"30.375321","Longitude":"69.345116","Population":"216565318"},{"Date":"2020-01-08","CountryCode":"QA","CountryName":"Qatar","Confirmed":"0","Deaths":"0","Latitude":"25.354826","Longitude":"51.183884","Population":"2832067"},{"Date":"2020-01-08","CountryCode":"RO","CountryName":"Romania","Confirmed":"0","Deaths":"0","Latitude":"45.943161","Longitude":"24.96676","Population":"19364557"},{"Date":"2020-01-08","CountryCode":"RU","CountryName":"Russia","Confirmed":"0","Deaths":"0","Latitude":"61.52401","Longitude":"105.318756","Population":"145872256"},{"Date":"2020-01-08","CountryCode":"SE","CountryName":"Sweden","Confirmed":"0","Deaths":"0","Latitude":"60.128161","Longitude":"18.643501","Population":"10036379"},{"Date":"2020-01-08","CountryCode":"SG","CountryName":"Singapore","Confirmed":"0","Deaths":"0","Latitude":"1.352083","Longitude":"103.819836","Population":"5804337"},{"Date":"2020-01-08","CountryCode":"SM","CountryName":"San Marino","Confirmed":"0","Deaths":"0","Latitude":"43.94236","Longitude":"12.457777","Population":"33860"},{"Date":"2020-01-08","CountryCode":"TH","CountryName":"Thailand","Confirmed":"0","Deaths":"0","Latitude":"15.870032","Longitude":"100.992541","Population":"69037513"},{"Date":"2020-01-08","CountryCode":"TW","CountryName":"Taiwan","Confirmed":"0","Deaths":"0","Latitude":"23.69781","Longitude":"120.960515","Population":"23773876"},{"Date":"2020-01-08","CountryCode":"US","CountryName":"United States of America","Confirmed":"0","Deaths":"0","Latitude":"37.09024","Longitude":"-95.712891","Population":"329064917"},{"Date":"2020-01-08","CountryCode":"VN","CountryName":"Vietnam","Confirmed":"0","Deaths":"0","Latitude":"14.058324","Longitude":"108.277199","Population":"96462106"},{"Date":"2020-01-09","CountryCode":"AE","CountryName":"United Arab Emirates","Confirmed":"0","Deaths":"0","Latitude":"23.424076","Longitude":"53.847818","Population":"9770529"},{"Date":"2020-01-09","CountryCode":"AF","CountryName":"Afghanistan","Confirmed":"0","Deaths":"0","Latitude":"33.93911","Longitude":"67.709953","Population":"38041754"},{"Date":"2020-01-09","CountryCode":"AM","CountryName":"Armenia","Confirmed":"0","Deaths":"0","Latitude":"40.069099","Longitude":"45.038189","Population":"2957731"},{"Date":"2020-01-09","CountryCode":"AT","CountryName":"Austria","Confirmed":"0","Deaths":"0","Latitude":"47.516231","Longitude":"14.550072","Population":"8955102"},{"Date":"2020-01-09","CountryCode":"AU","CountryName":"Australia","Confirmed":"0","Deaths":"0","Latitude":"-25.274398","Longitude":"133.775136","Population":"25203198"},{"Date":"2020-01-09","CountryCode":"AZ","CountryName":"Azerbaijan","Confirmed":"0","Deaths":"0","Latitude":"40.143105","Longitude":"47.576927","Population":"10047718"},{"Date":"2020-01-09","CountryCode":"BE","CountryName":"Belgium","Confirmed":"0","Deaths":"0","Latitude":"50.503887","Longitude":"4.469936","Population":"11539328"},{"Date":"2020-01-09","CountryCode":"BH","CountryName":"Bahrain","Confirmed":"0","Deaths":"0","Latitude":"25.930414","Longitude":"50.637772","Population":"1641172"},{"Date":"2020-01-09","CountryCode":"BR","CountryName":"Brazil","Confirmed":"0","Deaths":"0","Latitude":"-14.235004","Longitude":"-51.92528","Population":"211049527"},{"Date":"2020-01-09","CountryCode":"BY","CountryName":"Belarus","Confirmed":"0","Deaths":"0","Latitude":"53.709807","Longitude":"27.953389","Population":"9452411"},{"Date":"2020-01-09","CountryCode":"CA","CountryName":"Canada","Confirmed":"0","Deaths":"0","Latitude":"56.130366","Longitude":"-106.346771","Population":"37411047"},