[{"Date":1577750400000,"CountryCode":"AE","CountryName":"United Arab Emirates","Confirmed":0,"Deaths":0,"Latitude":"23.424076","Longitude":"53.847818"},{"Date":1577750400000,"CountryCode":"AF","CountryName":"Afghanistan","Confirmed":0,"Deaths":0,"Latitude":"33.93911","Longitude":"67.709953"},{"Date":1577750400000,"CountryCode":"AM","CountryName":"Armenia","Confirmed":0,"Deaths":0,"Latitude":"40.069099","Longitude":"45.038189"},{"Date":1577750400000,"CountryCode":"AT","CountryName":"Austria","Confirmed":0,"Deaths":0,"Latitude":"47.516231","Longitude":"14.550072"},{"Date":1577750400000,"CountryCode":"AU","CountryName":"Australia","Confirmed":0,"Deaths":0,"Latitude":"-25.274398","Longitude":"133.775136"},{"Date":1577750400000,"CountryCode":"AZ","CountryName":"Azerbaijan","Confirmed":0,"Deaths":0,"Latitude":"40.143105","Longitude":"47.576927"},{"Date":1577750400000,"CountryCode":"BE","CountryName":"Belgium","Confirmed":0,"Deaths":0,"Latitude":"50.503887","Longitude":"4.469936"},{"Date":1577750400000,"CountryCode":"BH","CountryName":"Bahrain","Confirmed":0,"Deaths":0,"Latitude":"25.930414","Longitude":"50.637772"},{"Date":1577750400000,"CountryCode":"BR","CountryName":"Brazil","Confirmed":0,"Deaths":0,"Latitude":"-14.235004","Longitude":"-51.92528"},{"Date":1577750400000,"CountryCode":"BY","CountryName":"Belarus","Confirmed":0,"Deaths":0,"Latitude":"53.709807","Longitude":"27.953389"},{"Date":1577750400000,"CountryCode":"CA","CountryName":"Canada","Confirmed":0,"Deaths":0,"Latitude":"56.130366","Longitude":"-106.346771"},{"Date":1577750400000,"CountryCode":"CH","CountryName":"Switzerland","Confirmed":0,"Deaths":0,"Latitude":"46.818188","Longitude":"8.227512"},{"Date":1577750400000,"CountryCode":"CN","CountryName":"China","Confirmed":27,"Deaths":0,"Latitude":"35.86166","Longitude":"104.195397"},{"Date":1577750400000,"CountryCode":"CZ","CountryName":"Czech Republic","Confirmed":0,"Deaths":0,"Latitude":"49.817492","Longitude":"15.472962"},{"Date":1577750400000,"CountryCode":"DE","CountryName":"Germany","Confirmed":0,"Deaths":0,"Latitude":"51.165691","Longitude":"10.451526"},{"Date":1577750400000,"CountryCode":"DK","CountryName":"Denmark","Confirmed":0,"Deaths":0,"Latitude":"56.26392","Longitude":"9.501785"},{"Date":1577750400000,"CountryCode":"DO","CountryName":"Dominican Republic","Confirmed":0,"Deaths":0,"Latitude":"18.735693","Longitude":"-70.162651"},{"Date":1577750400000,"CountryCode":"DZ","CountryName":"Algeria","Confirmed":0,"Deaths":0,"Latitude":"28.033886","Longitude":"1.659626"},{"Date":1577750400000,"CountryCode":"EC","CountryName":"Ecuador","Confirmed":0,"Deaths":0,"Latitude":"-1.831239","Longitude":"-78.183406"},{"Date":1577750400000,"CountryCode":"EE","CountryName":"Estonia","Confirmed":0,"Deaths":0,"Latitude":"58.595272","Longitude":"25.013607"},{"Date":1577750400000,"CountryCode":"EG","CountryName":"Egypt","Confirmed":0,"Deaths":0,"Latitude":"26.820553","Longitude":"30.802498"},{"Date":1577750400000,"CountryCode":"ES","CountryName":"Spain","Confirmed":0,"Deaths":0,"Latitude":"40.463667","Longitude":"-3.74922"},{"Date":1577750400000,"CountryCode":"FI","CountryName":"Finland","Confirmed":0,"Deaths":0,"Latitude":"61.92411","Longitude":"25.748151"},{"Date":1577750400000,"CountryCode":"FR","CountryName":"France","Confirmed":0,"Deaths":0,"Latitude":"46.227638","Longitude":"2.213749"},{"Date":1577750400000,"CountryCode":"GE","CountryName":"Georgia","Confirmed":0,"Deaths":0,"Latitude":"42.315407","Longitude":"43.356892"},{"Date":1577750400000,"CountryCode":"GR","CountryName":"Greece","Confirmed":0,"Deaths":0,"Latitude":"39.074208","Longitude":"21.824312"},{"Date":1577750400000,"CountryCode":"HR","CountryName":"Croatia","Confirmed":0,"Deaths":0,"Latitude":"45.1","Longitude":"15.2"},{"Date":1577750400000,"CountryCode":"ID","CountryName":"Indonesia","Confirmed":0,"Deaths":0,"Latitude":"-0.789275","Longitude":"113.921327"},{"Date":1577750400000,"CountryCode":"IE","CountryName":"Ireland","Confirmed":0,"Deaths":0,"Latitude":"53.41291","Longitude":"-8.24389"},{"Date":1577750400000,"CountryCode":"IL","CountryName":"Israel","Confirmed":0,"Deaths":0,"Latitude":"31.046051","Longitude":"34.851612"},{"Date":1577750400000,"CountryCode":"IN","CountryName":"India","Confirmed":0,"Deaths":0,"Latitude":"20.593684","Longitude":"78.96288"},{"Date":1577750400000,"CountryCode":"IQ","CountryName":"Iraq","Confirmed":0,"Deaths":0,"Latitude":"33.223191","Longitude":"43.679291"},{"Date":1577750400000,"CountryCode":"IR","CountryName":"Iran","Confirmed":0,"Deaths":0,"Latitude":"32.427908","Longitude":"53.688046"},{"Date":1577750400000,"CountryCode":"IS","CountryName":"Iceland","Confirmed":0,"Deaths":0,"Latitude":"64.963051","Longitude":"-19.020835"},{"Date":1577750400000,"CountryCode":"IT","CountryName":"Italy","Confirmed":0,"Deaths":0,"Latitude":"41.87194","Longitude":"12.56738"},{"Date":1577750400000,"CountryCode":"JP","CountryName":"Japan","Confirmed":0,"Deaths":0,"Latitude":"36.204824","Longitude":"138.252924"},{"Date":1577750400000,"CountryCode":"KH","CountryName":"Cambodia","Confirmed":0,"Deaths":0,"Latitude":"12.565679","Longitude":"104.990963"},{"Date":1577750400000,"CountryCode":"KR","CountryName":"South Korea","Confirmed":0,"Deaths":0,"Latitude":"35.907757","Longitude":"127.766922"},{"Date":1577750400000,"CountryCode":"KW","CountryName":"Kuwait","Confirmed":0,"Deaths":0,"Latitude":"29.31166","Longitude":"47.481766"},{"Date":1577750400000,"CountryCode":"LB","CountryName":"Lebanon","Confirmed":0,"Deaths":0,"Latitude":"33.854721","Longitude":"35.862285"},{"Date":1577750400000,"CountryCode":"LK","CountryName":"Sri Lanka","Confirmed":0,"Deaths":0,"Latitude":"7.873054","Longitude":"80.771797"},{"Date":1577750400000,"CountryCode":"LT","CountryName":"Lithuania","Confirmed":0,"Deaths":0,"Latitude":"55.169438","Longitude":"23.881275"},{"Date":1577750400000,"CountryCode":"LU","CountryName":"Luxembourg","Confirmed":0,"Deaths":0,"Latitude":"49.815273","Longitude":"6.129583"},{"Date":1577750400000,"CountryCode":"MC","CountryName":"Monaco","Confirmed":0,"Deaths":0,"Latitude":"43.750298","Longitude":"7.412841"},{"Date":1577750400000,"CountryCode":"MK","CountryName":"North Macedonia","Confirmed":0,"Deaths":0,"Latitude":"41.608635","Longitude":"21.745275"},{"Date":1577750400000,"CountryCode":"MX","CountryName":"Mexico","Confirmed":0,"Deaths":0,"Latitude":"23.634501","Longitude":"-102.552784"},{"Date":1577750400000,"CountryCode":"MY","CountryName":"Malaysia","Confirmed":0,"Deaths":0,"Latitude":"4.210484","Longitude":"101.975766"},{"Date":1577750400000,"CountryCode":"NG","CountryName":"Nigeria","Confirmed":0,"Deaths":0,"Latitude":"9.081999","Longitude":"8.675277"},{"Date":1577750400000,"CountryCode":"NL","CountryName":"Netherlands","Confirmed":0,"Deaths":0,"Latitude":"52.132633","Longitude":"5.291266"},{"Date":1577750400000,"CountryCode":"NO","CountryName":"Norway","Confirmed":0,"Deaths":0,"Latitude":"60.472024","Longitude":"8.468946"},{"Date":1577750400000,"CountryCode":"NP","CountryName":"Nepal","Confirmed":0,"Deaths":0,"Latitude":"28.394857","Longitude":"84.124008"},{"Date":1577750400000,"CountryCode":"NZ","CountryName":"New Zealand","Confirmed":0,"Deaths":0,"Latitude":"-40.900557","Longitude":"174.885971"},{"Date":1577750400000,"CountryCode":"OM","CountryName":"Oman","Confirmed":0,"Deaths":0,"Latitude":"21.512583","Longitude":"55.923255"},{"Date":1577750400000,"CountryCode":"PH","CountryName":"Philippines","Confirmed":0,"Deaths":0,"Latitude":"12.879721","Longitude":"121.774017"},{"Date":1577750400000,"CountryCode":"PK","CountryName":"Pakistan","Confirmed":0,"Deaths":0,"Latitude":"30.375321","Longitude":"69.345116"},{"Date":1577750400000,"CountryCode":"QA","CountryName":"Qatar","Confirmed":0,"Deaths":0,"Latitude":"25.354826","Longitude":"51.183884"},{"Date":1577750400000,"CountryCode":"RO","CountryName":"Romania","Confirmed":0,"Deaths":0,"Latitude":"45.943161","Longitude":"24.96676"},{"Date":1577750400000,"CountryCode":"RU","CountryName":"Russia","Confirmed":0,"Deaths":0,"Latitude":"61.52401","Longitude":"105.318756"},{"Date":1577750400000,"CountryCode":"SE","CountryName":"Sweden","Confirmed":0,"Deaths":0,"Latitude":"60.128161","Longitude":"18.643501"},{"Date":1577750400000,"CountryCode":"SG","CountryName":"Singapore","Confirmed":0,"Deaths":0,"Latitude":"1.352083","Longitude":"103.819836"},{"Date":1577750400000,"CountryCode":"SM","CountryName":"San Marino","Confirmed":0,"Deaths":0,"Latitude":"43.94236","Longitude":"12.457777"},{"Date":1577750400000,"CountryCode":"TH","CountryName":"Thailand","Confirmed":0,"Deaths":0,"Latitude":"15.870032","Longitude":"100.992541"},{"Date":1577750400000,"CountryCode":"TW","CountryName":"Taiwan","Confirmed":0,"Deaths":0,"Latitude":"23.69781","Longitude":"120.960515"},{"Date":1577750400000,"CountryCode":"UK","CountryName":"United Kingdom","Confirmed":0,"Deaths":0,"Latitude":"55.3781","Longitude":"3.4360"},{"Date":1577750400000,"CountryCode":"US","CountryName":"United States of America","Confirmed":0,"Deaths":0,"Latitude":"37.09024","Longitude":"-95.712891"},{"Date":1577750400000,"CountryCode":"VN","CountryName":"Vietnam","Confirmed":0,"Deaths":0,"Latitude":"14.058324","Longitude":"108.277199"},{"Date":1577836800000,"CountryCode":"AE","CountryName":"United Arab Emirates","Confirmed":0,"Deaths":0,"Latitude":"23.424076","Longitude":"53.847818"},{"Date":1577836800000,"CountryCode":"AF","CountryName":"Afghanistan","Confirmed":0,"Deaths":0,"Latitude":"33.93911","Longitude":"67.709953"},{"Date":1577836800000,"CountryCode":"AM","CountryName":"Armenia","Confirmed":0,"Deaths":0,"Latitude":"40.069099","Longitude":"45.038189"},{"Date":1577836800000,"CountryCode":"AT","CountryName":"Austria","Confirmed":0,"Deaths":0,"Latitude":"47.516231","Longitude":"14.550072"},{"Date":1577836800000,"CountryCode":"AU","CountryName":"Australia","Confirmed":0,"Deaths":0,"Latitude":"-25.274398","Longitude":"133.775136"},{"Date":1577836800000,"CountryCode":"AZ","CountryName":"Azerbaijan","Confirmed":0,"Deaths":0,"Latitude":"40.143105","Longitude":"47.576927"},{"Date":1577836800000,"CountryCode":"BE","CountryName":"Belgium","Confirmed":0,"Deaths":0,"Latitude":"50.503887","Longitude":"4.469936"},{"Date":1577836800000,"CountryCode":"BH","CountryName":"Bahrain","Confirmed":0,"Deaths":0,"Latitude":"25.930414","Longitude":"50.637772"},{"Date":1577836800000,"CountryCode":"BR","CountryName":"Brazil","Confirmed":0,"Deaths":0,"Latitude":"-14.235004","Longitude":"-51.92528"},{"Date":1577836800000,"CountryCode":"BY","CountryName":"Belarus","Confirmed":0,"Deaths":0,"Latitude":"53.709807","Longitude":"27.953389"},{"Date":1577836800000,"CountryCode":"CA","CountryName":"Canada","Confirmed":0,"Deaths":0,"Latitude":"56.130366","Longitude":"-106.346771"},{"Date":1577836800000,"CountryCode":"CH","CountryName":"Switzerland","Confirmed":0,"Deaths":0,"Latitude":"46.818188","Longitude":"8.227512"},{"Date":1577836800000,"CountryCode":"CN","CountryName":"China","Confirmed":27,"Deaths":0,"Latitude":"35.86166","Longitude":"104.195397"},{"Date":1577836800000,"CountryCode":"CZ","CountryName":"Czech Republic","Confirmed":0,"Deaths":0,"Latitude":"49.817492","Longitude":"15.472962"},{"Date":1577836800000,"CountryCode":"DE","CountryName":"Germany","Confirmed":0,"Deaths":0,"Latitude":"51.165691","Longitude":"10.451526"},{"Date":1577836800000,"CountryCode":"DK","CountryName":"Denmark","Confirmed":0,"Deaths":0,"Latitude":"56.26392","Longitude":"9.501785"},{"Date":1577836800000,"CountryCode":"DO","CountryName":"Dominican Republic","Confirmed":0,"Deaths":0,"Latitude":"18.735693","Longitude":"-70.162651"},{"Date":1577836800000,"CountryCode":"DZ","CountryName":"Algeria","Confirmed":0,"Deaths":0,"Latitude":"28.033886","Longitude":"1.659626"},{"Date":1577836800000,"CountryCode":"EC","CountryName":"Ecuador","Confirmed":0,"Deaths":0,"Latitude":"-1.831239","Longitude":"-78.183406"},{"Date":1577836800000,"CountryCode":"EE","CountryName":"Estonia","Confirmed":0,"Deaths":0,"Latitude":"58.595272","Longitude":"25.013607"},{"Date":1577836800000,"CountryCode":"EG","CountryName":"Egypt","Confirmed":0,"Deaths":0,"Latitude":"26.820553","Longitude":"30.802498"},{"Date":1577836800000,"CountryCode":"ES","CountryName":"Spain","Confirmed":0,"Deaths":0,"Latitude":"40.463667","Longitude":"-3.74922"},{"Date":1577836800000,"CountryCode":"FI","CountryName":"Finland","Confirmed":0,"Deaths":0,"Latitude":"61.92411","Longitude":"25.748151"},{"Date":1577836800000,"CountryCode":"FR","CountryName":"France","Confirmed":0,"Deaths":0,"Latitude":"46.227638","Longitude":"2.213749"},{"Date":1577836800000,"CountryCode":"GE","CountryName":"Georgia","Confirmed":0,"Deaths":0,"Latitude":"42.315407","Longitude":"43.356892"},{"Date":1577836800000,"CountryCode":"GR","CountryName":"Greece","Confirmed":0,"Deaths":0,"Latitude":"39.074208","Longitude":"21.824312"},{"Date":1577836800000,"CountryCode":"HR","CountryName":"Croatia","Confirmed":0,"Deaths":0,"Latitude":"45.1","Longitude":"15.2"},{"Date":1577836800000,"CountryCode":"ID","CountryName":"Indonesia","Confirmed":0,"Deaths":0,"Latitude":"-0.789275","Longitude":"113.921327"},{"Date":1577836800000,"CountryCode":"IE","CountryName":"Ireland","Confirmed":0,"Deaths":0,"Latitude":"53.41291","Longitude":"-8.24389"},{"Date":1577836800000,"CountryCode":"IL","CountryName":"Israel","Confirmed":0,"Deaths":0,"Latitude":"31.046051","Longitude":"34.851612"},{"Date":1577836800000,"CountryCode":"IN","CountryName":"India","Confirmed":0,"Deaths":0,"Latitude":"20.593684","Longitude":"78.96288"},{"Date":1577836800000,"CountryCode":"IQ","CountryName":"Iraq","Confirmed":0,"Deaths":0,"Latitude":"33.223191","Longitude":"43.679291"},{"Date":1577836800000,"CountryCode":"IR","CountryName":"Iran","Confirmed":0,"Deaths":0,"Latitude":"32.427908","Longitude":"53.688046"},{"Date":1577836800000,"CountryCode":"IS","CountryName":"Iceland","Confirmed":0,"Deaths":0,"Latitude":"64.963051","Longitude":"-19.020835"},{"Date":1577836800000,"CountryCode":"IT","CountryName":"Italy","Confirmed":0,"Deaths":0,"Latitude":"41.87194","Longitude":"12.56738"},{"Date":1577836800000,"CountryCode":"JP","CountryName":"Japan","Confirmed":0,"Deaths":0,"Latitude":"36.204824","Longitude":"138.252924"},{"Date":1577836800000,"CountryCode":"KH","CountryName":"Cambodia","Confirmed":0,"Deaths":0,"Latitude":"12.565679","Longitude":"104.990963"},{"Date":1577836800000,"CountryCode":"KR","CountryName":"South Korea","Confirmed":0,"Deaths":0,"Latitude":"35.907757","Longitude":"127.766922"},{"Date":1577836800000,"CountryCode":"KW","CountryName":"Kuwait","Confirmed":0,"Deaths":0,"Latitude":"29.31166","Longitude":"47.481766"},{"Date":1577836800000,"CountryCode":"LB","CountryName":"Lebanon","Confirmed":0,"Deaths":0,"Latitude":"33.854721","Longitude":"35.862285"},{"Date":1577836800000,"CountryCode":"LK","CountryName":"Sri Lanka","Confirmed":0,"Deaths":0,"Latitude":"7.873054","Longitude":"80.771797"},{"Date":1577836800000,"CountryCode":"LT","CountryName":"Lithuania","Confirmed":0,"Deaths":0,"Latitude":"55.169438","Longitude":"23.881275"},{"Date":1577836800000,"CountryCode":"LU","CountryName":"Luxembourg","Confirmed":0,"Deaths":0,"Latitude":"49.815273","Longitude":"6.129583"},{"Date":1577836800000,"CountryCode":"MC","CountryName":"Monaco","Confirmed":0,"Deaths":0,"Latitude":"43.750298","Longitude":"7.412841"},{"Date":1577836800000,"CountryCode":"MK","CountryName":"North Macedonia","Confirmed":0,"Deaths":0,"Latitude":"41.608635","Longitude":"21.745275"},{"Date":1577836800000,"CountryCode":"MX","CountryName":"Mexico","Confirmed":0,"Deaths":0,"Latitude":"23.634501","Longitude":"-102.552784"},{"Date":1577836800000,"CountryCode":"MY","CountryName":"Malaysia","Confirmed":0,"Deaths":0,"Latitude":"4.210484","Longitude":"101.975766"},{"Date":1577836800000,"CountryCode":"NG","CountryName":"Nigeria","Confirmed":0,"Deaths":0,"Latitude":"9.081999","Longitude":"8.675277"},{"Date":1577836800000,"CountryCode":"NL","CountryName":"Netherlands","Confirmed":0,"Deaths":0,"Latitude":"52.132633","Longitude":"5.291266"},{"Date":1577836800000,"CountryCode":"NO","CountryName":"Norway","Confirmed":0,"Deaths":0,"Latitude":"60.472024","Longitude":"8.468946"},{"Date":1577836800000,"CountryCode":"NP","CountryName":"Nepal","Confirmed":0,"Deaths":0,"Latitude":"28.394857","Longitude":"84.124008"},{"Date":1577836800000,"CountryCode":"NZ","CountryName":"New Zealand","Confirmed":0,"Deaths":0,"Latitude":"-40.900557","Longitude":"174.885971"},{"Date":1577836800000,"CountryCode":"OM","CountryName":"Oman","Confirmed":0,"Deaths":0,"Latitude":"21.512583","Longitude":"55.923255"},{"Date":1577836800000,"CountryCode":"PH","CountryName":"Philippines","Confirmed":0,"Deaths":0,"Latitude":"12.879721","Longitude":"121.774017"},{"Date":1577836800000,"CountryCode":"PK","CountryName":"Pakistan","Confirmed":0,"Deaths":0,"Latitude":"30.375321","Longitude":"69.345116"},{"Date":1577836800000,"CountryCode":"QA","CountryName":"Qatar","Confirmed":0,"Deaths":0,"Latitude":"25.354826","Longitude":"51.183884"},{"Date":1577836800000,"CountryCode":"RO","CountryName":"Romania","Confirmed":0,"Deaths":0,"Latitude":"45.943161","Longitude":"24.96676"},{"Date":1577836800000,"CountryCode":"RU","CountryName":"Russia","Confirmed":0,"Deaths":0,"Latitude":"61.52401","Longitude":"105.318756"},{"Date":1577836800000,"CountryCode":"SE","CountryName":"Sweden","Confirmed":0,"Deaths":0,"Latitude":"60.128161","Longitude":"18.643501"},{"Date":1577836800000,"CountryCode":"SG","CountryName":"Singapore","Confirmed":0,"Deaths":0,"Latitude":"1.352083","Longitude":"103.819836"},{"Date":1577836800000,"CountryCode":"SM","CountryName":"San Marino","Confirmed":0,"Deaths":0,"Latitude":"43.94236","Longitude":"12.457777"},{"Date":1577836800000,"CountryCode":"TH","CountryName":"Thailand","Confirmed":0,"Deaths":0,"Latitude":"15.870032","Longitude":"100.992541"},{"Date":1577836800000,"CountryCode":"TW","CountryName":"Taiwan","Confirmed":0,"Deaths":0,"Latitude":"23.69781","Longitude":"120.960515"},{"Date":1577836800000,"CountryCode":"UK","CountryName":"United Kingdom","Confirmed":0,"Deaths":0,"Latitude":"55.3781","Longitude":"3.4360"},{"Date":1577836800000,"CountryCode":"US","CountryName":"United States of America","Confirmed":0,"Deaths":0,"Latitude":"37.09024","Longitude":"-95.712891"},{"Date":1577836800000,"CountryCode":"VN","CountryName":"Vietnam","Confirmed":0,"Deaths":0,"Latitude":"14.058324","Longitude":"108.277199"},{"Date":1577923200000,"CountryCode":"AE","CountryName":"United Arab Emirates","Confirmed":0,"Deaths":0,"Latitude":"23.424076","Longitude":"53.847818"},{"Date":1577923200000,"CountryCode":"AF","CountryName":"Afghanistan","Confirmed":0,"Deaths":0,"Latitude":"33.93911","Longitude":"67.709953"},{"Date":1577923200000,"CountryCode":"AM","CountryName":"Armenia","Confirmed":0,"Deaths":0,"Latitude":"40.069099","Longitude":"45.038189"},{"Date":1577923200000,"CountryCode":"AT","CountryName":"Austria","Confirmed":0,"Deaths":0,"Latitude":"47.516231","Longitude":"14.550072"},{"Date":1577923200000,"CountryCode":"AU","CountryName":"Australia","Confirmed":0,"Deaths":0,"Latitude":"-25.274398","Longitude":"133.775136"},{"Date":1577923200000,"CountryCode":"AZ","CountryName":"Azerbaijan","Confirmed":0,"Deaths":0,"Latitude":"40.143105","Longitude":"47.576927"},{"Date":1577923200000,"CountryCode":"BE","CountryName":"Belgium","Confirmed":0,"Deaths":0,"Latitude":"50.503887","Longitude":"4.469936"},{"Date":1577923200000,"CountryCode":"BH","CountryName":"Bahrain","Confirmed":0,"Deaths":0,"Latitude":"25.930414","Longitude":"50.637772"},{"Date":1577923200000,"CountryCode":"BR","CountryName":"Brazil","Confirmed":0,"Deaths":0,"Latitude":"-14.235004","Longitude":"-51.92528"},{"Date":1577923200000,"CountryCode":"BY","CountryName":"Belarus","Confirmed":0,"Deaths":0,"Latitude":"53.709807","Longitude":"27.953389"},{"Date":1577923200000,"CountryCode":"CA","CountryName":"Canada","Confirmed":0,"Deaths":0,"Latitude":"56.130366","Longitude":"-106.346771"},{"Date":1577923200000,"CountryCode":"CH","CountryName":"Switzerland","Confirmed":0,"Deaths":0,"Latitude":"46.818188","Longitude":"8.227512"},{"Date":1577923200000,"CountryCode":"CN","CountryName":"China","Confirmed":27,"Deaths":0,"Latitude":"35.86166","Longitude":"104.195397"},{"Date":1577923200000,"CountryCode":"CZ","CountryName":"Czech Republic","Confirmed":0,"Deaths":0,"Latitude":"49.817492","Longitude":"15.472962"},{"Date":1577923200000,"CountryCode":"DE","CountryName":"Germany","Confirmed":0,"Deaths":0,"Latitude":"51.165691","Longitude":"10.451526"},{"Date":1577923200000,"CountryCode":"DK","CountryName":"Denmark","Confirmed":0,"Deaths":0,"Latitude":"56.26392","Longitude":"9.501785"},{"Date":1577923200000,"CountryCode":"DO","CountryName":"Dominican Republic","Confirmed":0,"Deaths":0,"Latitude":"18.735693","Longitude":"-70.162651"},{"Date":1577923200000,"CountryCode":"DZ","CountryName":"Algeria","Confirmed":0,"Deaths":0,"Latitude":"28.033886","Longitude":"1.659626"},{"Date":1577923200000,"CountryCode":"EC","CountryName":"Ecuador","Confirmed":0,"Deaths":0,"Latitude":"-1.831239","Longitude":"-78.183406"},{"Date":1577923200000,"CountryCode":"EE","CountryName":"Estonia","Confirmed":0,"Deaths":0,"Latitude":"58.595272","Longitude":"25.013607"},{"Date":1577923200000,"CountryCode":"EG","CountryName":"Egypt","Confirmed":0,"Deaths":0,"Latitude":"26.820553","Longitude":"30.802498"},{"Date":1577923200000,"CountryCode":"ES","CountryName":"Spain","Confirmed":0,"Deaths":0,"Latitude":"40.463667","Longitude":"-3.74922"},{"Date":1577923200000,"CountryCode":"FI","CountryName":"Finland","Confirmed":0,"Deaths":0,"Latitude":"61.92411","Longitude":"25.748151"},{"Date":1577923200000,"CountryCode":"FR","CountryName":"France","Confirmed":0,"Deaths":0,"Latitude":"46.227638","Longitude":"2.213749"},{"Date":1577923200000,"CountryCode":"GE","CountryName":"Georgia","Confirmed":0,"Deaths":0,"Latitude":"42.315407","Longitude":"43.356892"},{"Date":1577923200000,"CountryCode":"GR","CountryName":"Greece","Confirmed":0,"Deaths":0,"Latitude":"39.074208","Longitude":"21.824312"},{"Date":1577923200000,"CountryCode":"HR","CountryName":"Croatia","Confirmed":0,"Deaths":0,"Latitude":"45.1","Longitude":"15.2"},{"Date":1577923200000,"CountryCode":"ID","CountryName":"Indonesia","Confirmed":0,"Deaths":0,"Latitude":"-0.789275","Longitude":"113.921327"},{"Date":1577923200000,"CountryCode":"IE","CountryName":"Ireland","Confirmed":0,"Deaths":0,"Latitude":"53.41291","Longitude":"-8.24389"},{"Date":1577923200000,"CountryCode":"IL","CountryName":"Israel","Confirmed":0,"Deaths":0,"Latitude":"31.046051","Longitude":"34.851612"},{"Date":1577923200000,"CountryCode":"IN","CountryName":"India","Confirmed":0,"Deaths":0,"Latitude":"20.593684","Longitude":"78.96288"},{"Date":1577923200000,"CountryCode":"IQ","CountryName":"Iraq","Confirmed":0,"Deaths":0,"Latitude":"33.223191","Longitude":"43.679291"},{"Date":1577923200000,"CountryCode":"IR","CountryName":"Iran","Confirmed":0,"Deaths":0,"Latitude":"32.427908","Longitude":"53.688046"},{"Date":1577923200000,"CountryCode":"IS","CountryName":"Iceland","Confirmed":0,"Deaths":0,"Latitude":"64.963051","Longitude":"-19.020835"},{"Date":1577923200000,"CountryCode":"IT","CountryName":"Italy","Confirmed":0,"Deaths":0,"Latitude":"41.87194","Longitude":"12.56738"},{"Date":1577923200000,"CountryCode":"JP","CountryName":"Japan","Confirmed":0,"Deaths":0,"Latitude":"36.204824","Longitude":"138.252924"},{"Date":1577923200000,"CountryCode":"KH","CountryName":"Cambodia","Confirmed":0,"Deaths":0,"Latitude":"12.565679","Longitude":"104.990963"},{"Date":1577923200000,"CountryCode":"KR","CountryName":"South Korea","Confirmed":0,"Deaths":0,"Latitude":"35.907757","Longitude":"127.766922"},{"Date":1577923200000,"CountryCode":"KW","CountryName":"Kuwait","Confirmed":0,"Deaths":0,"Latitude":"29.31166","Longitude":"47.481766"},{"Date":1577923200000,"CountryCode":"LB","CountryName":"Lebanon","Confirmed":0,"Deaths":0,"Latitude":"33.854721","Longitude":"35.862285"},{"Date":1577923200000,"CountryCode":"LK","CountryName":"Sri Lanka","Confirmed":0,"Deaths":0,"Latitude":"7.873054","Longitude":"80.771797"},{"Date":1577923200000,"CountryCode":"LT","CountryName":"Lithuania","Confirmed":0,"Deaths":0,"Latitude":"55.169438","Longitude":"23.881275"},{"Date":1577923200000,"CountryCode":"LU","CountryName":"Luxembourg","Confirmed":0,"Deaths":0,"Latitude":"49.815273","Longitude":"6.129583"},{"Date":1577923200000,"CountryCode":"MC","CountryName":"Monaco","Confirmed":0,"Deaths":0,"Latitude":"43.750298","Longitude":"7.412841"},{"Date":1577923200000,"CountryCode":"MK","CountryName":"North Macedonia","Confirmed":0,"Deaths":0,"Latitude":"41.608635","Longitude":"21.745275"},{"Date":1577923200000,"CountryCode":"MX","CountryName":"Mexico","Confirmed":0,"Deaths":0,"Latitude":"23.634501","Longitude":"-102.552784"},{"Date":1577923200000,"CountryCode":"MY","CountryName":"Malaysia","Confirmed":0,"Deaths":0,"Latitude":"4.210484","Longitude":"101.975766"},{"Date":1577923200000,"CountryCode":"NG","CountryName":"Nigeria","Confirmed":0,"Deaths":0,"Latitude":"9.081999","Longitude":"8.675277"},{"Date":1577923200000,"CountryCode":"NL","CountryName":"Netherlands","Confirmed":0,"Deaths":0,"Latitude":"52.132633","Longitude":"5.291266"},{"Date":1577923200000,"CountryCode":"NO","CountryName":"Norway","Confirmed":0,"Deaths":0,"Latitude":"60.472024","Longitude":"8.468946"},{"Date":1577923200000,"CountryCode":"NP","CountryName":"Nepal","Confirmed":0,"Deaths":0,"Latitude":"28.394857","Longitude":"84.124008"},{"Date":1577923200000,"CountryCode":"NZ","CountryName":"New Zealand","Confirmed":0,"Deaths":0,"Latitude":"-40.900557","Longitude":"174.885971"},{"Date":1577923200000,"CountryCode":"OM","CountryName":"Oman","Confirmed":0,"Deaths":0,"Latitude":"21.512583","Longitude":"55.923255"},{"Date":1577923200000,"CountryCode":"PH","CountryName":"Philippines","Confirmed":0,"Deaths":0,"Latitude":"12.879721","Longitude":"121.774017"},{"Date":1577923200000,"CountryCode":"PK","CountryName":"Pakistan","Confirmed":0,"Deaths":0,"Latitude":"30.375321","Longitude":"69.345116"},{"Date":1577923200000,"CountryCode":"QA","CountryName":"Qatar","Confirmed":0,"Deaths":0,"Latitude":"25.354826","Longitude":"51.183884"},{"Date":1577923200000,"CountryCode":"RO","CountryName":"Romania","Confirmed":0,"Deaths":0,"Latitude":"45.943161","Longitude":"24.96676"},{"Date":1577923200000,"CountryCode":"RU","CountryName":"Russia","Confirmed":0,"Deaths":0,"Latitude":"61.52401","Longitude":"105.318756"},{"Date":1577923200000,"CountryCode":"SE","CountryName":"Sweden","Confirmed":0,"Deaths":0,"Latitude":"60.128161","Longitude":"18.643501"},{"Date":1577923200000,"CountryCode":"SG","CountryName":"Singapore","Confirmed":0,"Deaths":0,"Latitude":"1.352083","Longitude":"103.819836"},{"Date":1577923200000,"CountryCode":"SM","CountryName":"San Marino","Confirmed":0,"Deaths":0,"Latitude":"43.94236","Longitude":"12.457777"},{"Date":1577923200000,"CountryCode":"TH","CountryName":"Thailand","Confirmed":0,"Deaths":0,"Latitude":"15.870032","Longitude":"100.992541"},{"Date":1577923200000,"CountryCode":"TW","CountryName":"Taiwan","Confirmed":0,"Deaths":0,"Latitude":"23.69781","Longitude":"120.960515"},{"Date":1577923200000,"CountryCode":"UK","CountryName":"United Kingdom","Confirmed":0,"Deaths":0,"Latitude":"55.3781","Longitude":"3.4360"},{"Date":1577923200000,"CountryCode":"US","CountryName":"United States of America","Confirmed":0,"Deaths":0,"Latitude":"37.09024","Longitude":"-95.712891"},{"Date":1577923200000,"CountryCode":"VN","CountryName":"Vietnam","Confirmed":0,"Deaths":0,"Latitude":"14.058324","Longitude":"108.277199"},{"Date":1578009600000,"CountryCode":"AE","CountryName":"United Arab Emirates","Confirmed":0,"Deaths":0,"Latitude":"23.424076","Longitude":"53.847818"},{"Date":1578009600000,"CountryCode":"AF","CountryName":"Afghanistan","Confirmed":0,"Deaths":0,"Latitude":"33.93911","Longitude":"67.709953"},{"Date":1578009600000,"CountryCode":"AM","CountryName":"Armenia","Confirmed":0,"Deaths":0,"Latitude":"40.069099","Longitude":"45.038189"},{"Date":1578009600000,"CountryCode":"AT","CountryName":"Austria","Confirmed":0,"Deaths":0,"Latitude":"47.516231","Longitude":"14.550072"},{"Date":1578009600000,"CountryCode":"AU","CountryName":"Australia","Confirmed":0,"Deaths":0,"Latitude":"-25.274398","Longitude":"133.775136"},{"Date":1578009600000,"CountryCode":"AZ","CountryName":"Azerbaijan","Confirmed":0,"Deaths":0,"Latitude":"40.143105","Longitude":"47.576927"},{"Date":1578009600000,"CountryCode":"BE","CountryName":"Belgium","Confirmed":0,"Deaths":0,"Latitude":"50.503887","Longitude":"4.469936"},{"Date":1578009600000,"CountryCode":"BH","CountryName":"Bahrain","Confirmed":0,"Deaths":0,"Latitude":"25.930414","Longitude":"50.637772"},{"Date":1578009600000,"CountryCode":"BR","CountryName":"Brazil","Confirmed":0,"Deaths":0,"Latitude":"-14.235004","Longitude":"-51.92528"},{"Date":1578009600000,"CountryCode":"BY","CountryName":"Belarus","Confirmed":0,"Deaths":0,"Latitude":"53.709807","Longitude":"27.953389"},{"Date":1578009600000,"CountryCode":"CA","CountryName":"Canada","Confirmed":0,"Deaths":0,"Latitude":"56.130366","Longitude":"-106.346771"},{"Date":1578009600000,"CountryCode":"CH","CountryName":"Switzerland","Confirmed":0,"Deaths":0,"Latitude":"46.818188","Longitude":"8.227512"},{"Date":1578009600000,"CountryCode":"CN","CountryName":"China","Confirmed":44,"Deaths":0,"Latitude":"35.86166","Longitude":"104.195397"},{"Date":1578009600000,"CountryCode":"CZ","CountryName":"Czech Republic","Confirmed":0,"Deaths":0,"Latitude":"49.817492","Longitude":"15.472962"},{"Date":1578009600000,"CountryCode":"DE","CountryName":"Germany","Confirmed":0,"Deaths":0,"Latitude":"51.165691","Longitude":"10.451526"},{"Date":1578009600000,"CountryCode":"DK","CountryName":"Denmark","Confirmed":0,"Deaths":0,"Latitude":"56.26392","Longitude":"9.501785"},{"Date":1578009600000,"CountryCode":"DO","CountryName":"Dominican Republic","Confirmed":0,"Deaths":0,"Latitude":"18.735693","Longitude":"-70.162651"},{"Date":1578009600000,"CountryCode":"DZ","CountryName":"Algeria","Confirmed":0,"Deaths":0,"Latitude":"28.033886","Longitude":"1.659626"},{"Date":1578009600000,"CountryCode":"EC","CountryName":"Ecuador","Confirmed":0,"Deaths":0,"Latitude":"-1.831239","Longitude":"-78.183406"},{"Date":1578009600000,"CountryCode":"EE","CountryName":"Estonia","Confirmed":0,"Deaths":0,"Latitude":"58.595272","Longitude":"25.013607"},{"Date":1578009600000,"CountryCode":"EG","CountryName":"Egypt","Confirmed":0,"Deaths":0,"Latitude":"26.820553","Longitude":"30.802498"},{"Date":1578009600000,"CountryCode":"ES","CountryName":"Spain","Confirmed":0,"Deaths":0,"Latitude":"40.463667","Longitude":"-3.74922"},{"Date":1578009600000,"CountryCode":"FI","CountryName":"Finland","Confirmed":0,"Deaths":0,"Latitude":"61.92411","Longitude":"25.748151"},{"Date":1578009600000,"CountryCode":"FR","CountryName":"France","Confirmed":0,"Deaths":0,"Latitude":"46.227638","Longitude":"2.213749"},{"Date":1578009600000,"CountryCode":"GE","CountryName":"Georgia","Confirmed":0,"Deaths":0,"Latitude":"42.315407","Longitude":"43.356892"},{"Date":1578009600000,"CountryCode":"GR","CountryName":"Greece","Confirmed":0,"Deaths":0,"Latitude":"39.074208","Longitude":"21.824312"},{"Date":1578009600000,"CountryCode":"HR","CountryName":"Croatia","Confirmed":0,"Deaths":0,"Latitude":"45.1","Longitude":"15.2"},{"Date":1578009600000,"CountryCode":"ID","CountryName":"Indonesia","Confirmed":0,"Deaths":0,"Latitude":"-0.789275","Longitude":"113.921327"},{"Date":1578009600000,"CountryCode":"IE","CountryName":"Ireland","Confirmed":0,"Deaths":0,"Latitude":"53.41291","Longitude":"-8.24389"},{"Date":1578009600000,"CountryCode":"IL","CountryName":"Israel","Confirmed":0,"Deaths":0,"Latitude":"31.046051","Longitude":"34.851612"},{"Date":1578009600000,"CountryCode":"IN","CountryName":"India","Confirmed":0,"Deaths":0,"Latitude":"20.593684","Longitude":"78.96288"},{"Date":1578009600000,"CountryCode":"IQ","CountryName":"Iraq","Confirmed":0,"Deaths":0,"Latitude":"33.223191","Longitude":"43.679291"},{"Date":1578009600000,"CountryCode":"IR","CountryName":"Iran","Confirmed":0,"Deaths":0,"Latitude":"32.427908","Longitude":"53.688046"},{"Date":1578009600000,"CountryCode":"IS","CountryName":"Iceland","Confirmed":0,"Deaths":0,"Latitude":"64.963051","Longitude":"-19.020835"},{"Date":1578009600000,"CountryCode":"IT","CountryName":"Italy","Confirmed":0,"Deaths":0,"Latitude":"41.87194","Longitude":"12.56738"},{"Date":1578009600000,"CountryCode":"JP","CountryName":"Japan","Confirmed":0,"Deaths":0,"Latitude":"36.204824","Longitude":"138.252924"},{"Date":1578009600000,"CountryCode":"KH","CountryName":"Cambodia","Confirmed":0,"Deaths":0,"Latitude":"12.565679","Longitude":"104.990963"},{"Date":1578009600000,"CountryCode":"KR","CountryName":"South Korea","Confirmed":0,"Deaths":0,"Latitude":"35.907757","Longitude":"127.766922"},{"Date":1578009600000,"CountryCode":"KW","CountryName":"Kuwait","Confirmed":0,"Deaths":0,"Latitude":"29.31166","Longitude":"47.481766"},{"Date":1578009600000,"CountryCode":"LB","CountryName":"Lebanon","Confirmed":0,"Deaths":0,"Latitude":"33.854721","Longitude":"35.862285"},{"Date":1578009600000,"CountryCode":"LK","CountryName":"Sri Lanka","Confirmed":0,"Deaths":0,"Latitude":"7.873054","Longitude":"80.771797"},{"Date":1578009600000,"CountryCode":"LT","CountryName":"Lithuania","Confirmed":0,"Deaths":0,"Latitude":"55.169438","Longitude":"23.881275"},{"Date":1578009600000,"CountryCode":"LU","CountryName":"Luxembourg","Confirmed":0,"Deaths":0,"Latitude":"49.815273","Longitude":"6.129583"},{"Date":1578009600000,"CountryCode":"MC","CountryName":"Monaco","Confirmed":0,"Deaths":0,"Latitude":"43.750298","Longitude":"7.412841"},{"Date":1578009600000,"CountryCode":"MK","CountryName":"North Macedonia","Confirmed":0,"Deaths":0,"Latitude":"41.608635","Longitude":"21.745275"},{"Date":1578009600000,"CountryCode":"MX","CountryName":"Mexico","Confirmed":0,"Deaths":0,"Latitude":"23.634501","Longitude":"-102.552784"},{"Date":1578009600000,"CountryCode":"MY","CountryName":"Malaysia","Confirmed":0,"Deaths":0,"Latitude":"4.210484","Longitude":"101.975766"},{"Date":1578009600000,"CountryCode":"NG","CountryName":"Nigeria","Confirmed":0,"Deaths":0,"Latitude":"9.081999","Longitude":"8.675277"},{"Date":1578009600000,"CountryCode":"NL","CountryName":"Netherlands","Confirmed":0,"Deaths":0,"Latitude":"52.132633","Longitude":"5.291266"},{"Date":1578009600000,"CountryCode":"NO","CountryName":"Norway","Confirmed":0,"Deaths":0,"Latitude":"60.472024","Longitude":"8.468946"},{"Date":1578009600000,"CountryCode":"NP","CountryName":"Nepal","Confirmed":0,"Deaths":0,"Latitude":"28.394857","Longitude":"84.124008"},{"Date":1578009600000,"CountryCode":"NZ","CountryName":"New Zealand","Confirmed":0,"Deaths":0,"Latitude":"-40.900557","Longitude":"174.885971"},{"Date":1578009600000,"CountryCode":"OM","CountryName":"Oman","Confirmed":0,"Deaths":0,"Latitude":"21.512583","Longitude":"55.923255"},{"Date":1578009600000,"CountryCode":"PH","CountryName":"Philippines","Confirmed":0,"Deaths":0,"Latitude":"12.879721","Longitude":"121.774017"},{"Date":1578009600000,"CountryCode":"PK","CountryName":"Pakistan","Confirmed":0,"Deaths":0,"Latitude":"30.375321","Longitude":"69.345116"},{"Date":1578009600000,"CountryCode":"QA","CountryName":"Qatar","Confirmed":0,"Deaths":0,"Latitude":"25.354826","Longitude":"51.183884"},{"Date":1578009600000,"CountryCode":"RO","CountryName":"Romania","Confirmed":0,"Deaths":0,"Latitude":"45.943161","Longitude":"24.96676"},{"Date":1578009600000,"CountryCode":"RU","CountryName":"Russia","Confirmed":0,"Deaths":0,"Latitude":"61.52401","Longitude":"105.318756"},{"Date":1578009600000,"CountryCode":"SE","CountryName":"Sweden","Confirmed":0,"Deaths":0,"Latitude":"60.128161","Longitude":"18.643501"},{"Date":1578009600000,"CountryCode":"SG","CountryName":"Singapore","Confirmed":0,"Deaths":0,"Latitude":"1.352083","Longitude":"103.819836"},{"Date":1578009600000,"CountryCode":"SM","CountryName":"San Marino","Confirmed":0,"Deaths":0,"Latitude":"43.94236","Longitude":"12.457777"},{"Date":1578009600000,"CountryCode":"TH","CountryName":"Thailand","Confirmed":0,"Deaths":0,"Latitude":"15.870032","Longitude":"100.992541"},{"Date":1578009600000,"CountryCode":"TW","CountryName":"Taiwan","Confirmed":0,"Deaths":0,"Latitude":"23.69781","Longitude":"120.960515"},{"Date":1578009600000,"CountryCode":"UK","CountryName":"United Kingdom","Confirmed":0,"Deaths":0,"Latitude":"55.3781","Longitude":"3.4360"},{"Date":1578009600000,"CountryCode":"US","CountryName":"United States of America","Confirmed":0,"Deaths":0,"Latitude":"37.09024","Longitude":"-95.712891"},{"Date":1578009600000,"CountryCode":"VN","CountryName":"Vietnam","Confirmed":0,"Deaths":0,"Latitude":"14.058324","Longitude":"108.277199"},{"Date":1578096000000,"CountryCode":"AE","CountryName":"United Arab Emirates","Confirmed":0,"Deaths":0,"Latitude":"23.424076","Longitude":"53.847818"},{"Date":1578096000000,"CountryCode":"AF","CountryName":"Afghanistan","Confirmed":0,"Deaths":0,"Latitude":"33.93911","Longitude":"67.709953"},{"Date":1578096000000,"CountryCode":"AM","CountryName":"Armenia","Confirmed":0,"Deaths":0,"Latitude":"40.069099","Longitude":"45.038189"},{"Date":1578096000000,"CountryCode":"AT","CountryName":"Austria","Confirmed":0,"Deaths":0,"Latitude":"47.516231","Longitude":"14.550072"},{"Date":1578096000000,"CountryCode":"AU","CountryName":"Australia","Confirmed":0,"Deaths":0,"Latitude":"-25.274398","Longitude":"133.775136"},{"Date":1578096000000,"CountryCode":"AZ","CountryName":"Azerbaijan","Confirmed":0,"Deaths":0,"Latitude":"40.143105","Longitude":"47.576927"},{"Date":1578096000000,"CountryCode":"BE","CountryName":"Belgium","Confirmed":0,"Deaths":0,"Latitude":"50.503887","Longitude":"4.469936"},{"Date":1578096000000,"CountryCode":"BH","CountryName":"Bahrain","Confirmed":0,"Deaths":0,"Latitude":"25.930414","Longitude":"50.637772"},{"Date":1578096000000,"CountryCode":"BR","CountryName":"Brazil","Confirmed":0,"Deaths":0,"Latitude":"-14.235004","Longitude":"-51.92528"},{"Date":1578096000000,"CountryCode":"BY","CountryName":"Belarus","Confirmed":0,"Deaths":0,"Latitude":"53.709807","Longitude":"27.953389"},{"Date":1578096000000,"CountryCode":"CA","CountryName":"Canada","Confirmed":0,"Deaths":0,"Latitude":"56.130366","Longitude":"-106.346771"},{"Date":1578096000000,"CountryCode":"CH","CountryName":"Switzerland","Confirmed":0,"Deaths":0,"Latitude":"46.818188","Longitude":"8.227512"},{"Date":1578096000000,"CountryCode":"CN","CountryName":"China","Confirmed":44,"Deaths":0,"Latitude":"35.86166","Longitude":"104.195397"},{"Date":1578096000000,"CountryCode":"CZ","CountryName":"Czech Republic","Confirmed":0,"Deaths":0,"Latitude":"49.817492","Longitude":"15.472962"},{"Date":1578096000000,"CountryCode":"DE","CountryName":"Germany","Confirmed":0,"Deaths":0,"Latitude":"51.165691","Longitude":"10.451526"},{"Date":1578096000000,"CountryCode":"DK","CountryName":"Denmark","Confirmed":0,"Deaths":0,"Latitude":"56.26392","Longitude":"9.501785"},{"Date":1578096000000,"CountryCode":"DO","CountryName":"Dominican Republic","Confirmed":0,"Deaths":0,"Latitude":"18.735693","Longitude":"-70.162651"},{"Date":1578096000000,"CountryCode":"DZ","CountryName":"Algeria","Confirmed":0,"Deaths":0,"Latitude":"28.033886","Longitude":"1.659626"},{"Date":1578096000000,"CountryCode":"EC","CountryName":"Ecuador","Confirmed":0,"Deaths":0,"Latitude":"-1.831239","Longitude":"-78.183406"},{"Date":1578096000000,"CountryCode":"EE","CountryName":"Estonia","Confirmed":0,"Deaths":0,"Latitude":"58.595272","Longitude":"25.013607"},{"Date":1578096000000,"CountryCode":"EG","CountryName":"Egypt","Confirmed":0,"Deaths":0,"Latitude":"26.820553","Longitude":"30.802498"},{"Date":1578096000000,"CountryCode":"ES","CountryName":"Spain","Confirmed":0,"Deaths":0,"Latitude":"40.463667","Longitude":"-3.74922"},{"Date":1578096000000,"CountryCode":"FI","CountryName":"Finland","Confirmed":0,"Deaths":0,"Latitude":"61.92411","Longitude":"25.748151"},{"Date":1578096000000,"CountryCode":"FR","CountryName":"France","Confirmed":0,"Deaths":0,"Latitude":"46.227638","Longitude":"2.213749"},{"Date":1578096000000,"CountryCode":"GE","CountryName":"Georgia","Confirmed":0,"Deaths":0,"Latitude":"42.315407","Longitude":"43.356892"},{"Date":1578096000000,"CountryCode":"GR","CountryName":"Greece","Confirmed":0,"Deaths":0,"Latitude":"39.074208","Longitude":"21.824312"},{"Date":1578096000000,"CountryCode":"HR","CountryName":"Croatia","Confirmed":0,"Deaths":0,"Latitude":"45.1","Longitude":"15.2"},{"Date":1578096000000,"CountryCode":"ID","CountryName":"Indonesia","Confirmed":0,"Deaths":0,"Latitude":"-0.789275","Longitude":"113.921327"},{"Date":1578096000000,"CountryCode":"IE","CountryName":"Ireland","Confirmed":0,"Deaths":0,"Latitude":"53.41291","Longitude":"-8.24389"},{"Date":1578096000000,"CountryCode":"IL","CountryName":"Israel","Confirmed":0,"Deaths":0,"Latitude":"31.046051","Longitude":"34.851612"},{"Date":1578096000000,"CountryCode":"IN","CountryName":"India","Confirmed":0,"Deaths":0,"Latitude":"20.593684","Longitude":"78.96288"},{"Date":1578096000000,"CountryCode":"IQ","CountryName":"Iraq","Confirmed":0,"Deaths":0,"Latitude":"33.223191","Longitude":"43.679291"},{"Date":1578096000000,"CountryCode":"IR","CountryName":"Iran","Confirmed":0,"Deaths":0,"Latitude":"32.427908","Longitude":"53.688046"},{"Date":1578096000000,"CountryCode":"IS","CountryName":"Iceland","Confirmed":0,"Deaths":0,"Latitude":"64.963051","Longitude":"-19.020835"},{"Date":1578096000000,"CountryCode":"IT","CountryName":"Italy","Confirmed":0,"Deaths":0,"Latitude":"41.87194","Longitude":"12.56738"},{"Date":1578096000000,"CountryCode":"JP","CountryName":"Japan","Confirmed":0,"Deaths":0,"Latitude":"36.204824","Longitude":"138.252924"},{"Date":1578096000000,"CountryCode":"KH","CountryName":"Cambodia","Confirmed":0,"Deaths":0,"Latitude":"12.565679","Longitude":"104.990963"},{"Date":1578096000000,"CountryCode":"KR","CountryName":"South Korea","Confirmed":0,"Deaths":0,"Latitude":"35.907757","Longitude":"127.766922"},{"Date":1578096000000,"CountryCode":"KW","CountryName":"Kuwait","Confirmed":0,"Deaths":0,"Latitude":"29.31166","Longitude":"47.481766"},{"Date":1578096000000,"CountryCode":"LB","CountryName":"Lebanon","Confirmed":0,"Deaths":0,"Latitude":"33.854721","Longitude":"35.862285"},{"Date":1578096000000,"CountryCode":"LK","CountryName":"Sri Lanka","Confirmed":0,"Deaths":0,"Latitude":"7.873054","Longitude":"80.771797"},{"Date":1578096000000,"CountryCode":"LT","CountryName":"Lithuania","Confirmed":0,"Deaths":0,"Latitude":"55.169438","Longitude":"23.881275"},{"Date":1578096000000,"CountryCode":"LU","CountryName":"Luxembourg","Confirmed":0,"Deaths":0,"Latitude":"49.815273","Longitude":"6.129583"},{"Date":1578096000000,"CountryCode":"MC","CountryName":"Monaco","Confirmed":0,"Deaths":0,"Latitude":"43.750298","Longitude":"7.412841"},{"Date":1578096000000,"CountryCode":"MK","CountryName":"North Macedonia","Confirmed":0,"Deaths":0,"Latitude":"41.608635","Longitude":"21.745275"},{"Date":1578096000000,"CountryCode":"MX","CountryName":"Mexico","Confirmed":0,"Deaths":0,"Latitude":"23.634501","Longitude":"-102.552784"},{"Date":1578096000000,"CountryCode":"MY","CountryName":"Malaysia","Confirmed":0,"Deaths":0,"Latitude":"4.210484","Longitude":"101.975766"},{"Date":1578096000000,"CountryCode":"NG","CountryName":"Nigeria","Confirmed":0,"Deaths":0,"Latitude":"9.081999","Longitude":"8.675277"},{"Date":1578096000000,"CountryCode":"NL","CountryName":"Netherlands","Confirmed":0,"Deaths":0,"Latitude":"52.132633","Longitude":"5.291266"},{"Date":1578096000000,"CountryCode":"NO","CountryName":"Norway","Confirmed":0,"Deaths":0,"Latitude":"60.472024","Longitude":"8.468946"},{"Date":1578096000000,"CountryCode":"NP","CountryName":"Nepal","Confirmed":0,"Deaths":0,"Latitude":"28.394857","Longitude":"84.124008"},{"Date":1578096000000,"CountryCode":"NZ","CountryName":"New Zealand","Confirmed":0,"Deaths":0,"Latitude":"-40.900557","Longitude":"174.885971"},{"Date":1578096000000,"CountryCode":"OM","CountryName":"Oman","Confirmed":0,"Deaths":0,"Latitude":"21.512583","Longitude":"55.923255"},{"Date":1578096000000,"CountryCode":"PH","CountryName":"Philippines","Confirmed":0,"Deaths":0,"Latitude":"12.879721","Longitude":"121.774017"},{"Date":1578096000000,"CountryCode":"PK","CountryName":"Pakistan","Confirmed":0,"Deaths":0,"Latitude":"30.375321","Longitude":"69.345116"},{"Date":1578096000000,"CountryCode":"QA","CountryName":"Qatar","Confirmed":0,"Deaths":0,"Latitude":"25.354826","Longitude":"51.183884"},{"Date":1578096000000,"CountryCode":"RO","CountryName":"Romania","Confirmed":0,"Deaths":0,"Latitude":"45.943161","Longitude":"24.96676"},{"Date":1578096000000,"CountryCode":"RU","CountryName":"Russia","Confirmed":0,"Deaths":0,"Latitude":"61.52401","Longitude":"105.318756"},{"Date":1578096000000,"CountryCode":"SE","CountryName":"Sweden","Confirmed":0,"Deaths":0,"Latitude":"60.128161","Longitude":"18.643501"},{"Date":1578096000000,"CountryCode":"SG","CountryName":"Singapore","Confirmed":0,"Deaths":0,"Latitude":"1.352083","Longitude":"103.819836"},{"Date":1578096000000,"CountryCode":"SM","CountryName":"San Marino","Confirmed":0,"Deaths":0,"Latitude":"43.94236","Longitude":"12.457777"},{"Date":1578096000000,"CountryCode":"TH","CountryName":"Thailand","Confirmed":0,"Deaths":0,"Latitude":"15.870032","Longitude":"100.992541"},{"Date":1578096000000,"CountryCode":"TW","CountryName":"Taiwan","Confirmed":0,"Deaths":0,"Latitude":"23.69781","Longitude":"120.960515"},{"Date":1578096000000,"CountryCode":"UK","CountryName":"United Kingdom","Confirmed":0,"Deaths":0,"Latitude":"55.3781","Longitude":"3.4360"},{"Date":1578096000000,"CountryCode":"US","CountryName":"United States of America","Confirmed":0,"Deaths":0,"Latitude":"37.09024","Longitude":"-95.712891"},{"Date":1578096000000,"CountryCode":"VN","CountryName":"Vietnam","Confirmed":0,"Deaths":0,"Latitude":"14.058324","Longitude":"108.277199"},{"Date":1578182400000,"CountryCode":"AE","CountryName":"United Arab Emirates","Confirmed":0,"Deaths":0,"Latitude":"23.424076","Longitude":"53.847818"},{"Date":1578182400000,"CountryCode":"AF","CountryName":"Afghanistan","Confirmed":0,"Deaths":0,"Latitude":"33.93911","Longitude":"67.709953"},{"Date":1578182400000,"CountryCode":"AM","CountryName":"Armenia","Confirmed":0,"Deaths":0,"Latitude":"40.069099","Longitude":"45.038189"},{"Date":1578182400000,"CountryCode":"AT","CountryName":"Austria","Confirmed":0,"Deaths":0,"Latitude":"47.516231","Longitude":"14.550072"},{"Date":1578182400000,"CountryCode":"AU","CountryName":"Australia","Confirmed":0,"Deaths":0,"Latitude":"-25.274398","Longitude":"133.775136"},{"Date":1578182400000,"CountryCode":"AZ","CountryName":"Azerbaijan","Confirmed":0,"Deaths":0,"Latitude":"40.143105","Longitude":"47.576927"},{"Date":1578182400000,"CountryCode":"BE","CountryName":"Belgium","Confirmed":0,"Deaths":0,"Latitude":"50.503887","Longitude":"4.469936"},{"Date":1578182400000,"CountryCode":"BH","CountryName":"Bahrain","Confirmed":0,"Deaths":0,"Latitude":"25.930414","Longitude":"50.637772"},{"Date":1578182400000,"CountryCode":"BR","CountryName":"Brazil","Confirmed":0,"Deaths":0,"Latitude":"-14.235004","Longitude":"-51.92528"},{"Date":1578182400000,"CountryCode":"BY","CountryName":"Belarus","Confirmed":0,"Deaths":0,"Latitude":"53.709807","Longitude":"27.953389"},{"Date":1578182400000,"CountryCode":"CA","CountryName":"Canada","Confirmed":0,"Deaths":0,"Latitude":"56.130366","Longitude":"-106.346771"},{"Date":1578182400000,"CountryCode":"CH","CountryName":"Switzerland","Confirmed":0,"Deaths":0,"Latitude":"46.818188","Longitude":"8.227512"},{"Date":1578182400000,"CountryCode":"CN","CountryName":"China","Confirmed":59,"Deaths":0,"Latitude":"35.86166","Longitude":"104.195397"},{"Date":1578182400000,"CountryCode":"CZ","CountryName":"Czech Republic","Confirmed":0,"Deaths":0,"Latitude":"49.817492","Longitude":"15.472962"},{"Date":1578182400000,"CountryCode":"DE","CountryName":"Germany","Confirmed":0,"Deaths":0,"Latitude":"51.165691","Longitude":"10.451526"},{"Date":1578182400000,"CountryCode":"DK","CountryName":"Denmark","Confirmed":0,"Deaths":0,"Latitude":"56.26392","Longitude":"9.501785"},{"Date":1578182400000,"CountryCode":"DO","CountryName":"Dominican Republic","Confirmed":0,"Deaths":0,"Latitude":"18.735693","Longitude":"-70.162651"},{"Date":1578182400000,"CountryCode":"DZ","CountryName":"Algeria","Confirmed":0,"Deaths":0,"Latitude":"28.033886","Longitude":"1.659626"},{"Date":1578182400000,"CountryCode":"EC","CountryName":"Ecuador","Confirmed":0,"Deaths":0,"Latitude":"-1.831239","Longitude":"-78.183406"},{"Date":1578182400000,"CountryCode":"EE","CountryName":"Estonia","Confirmed":0,"Deaths":0,"Latitude":"58.595272","Longitude":"25.013607"},{"Date":1578182400000,"CountryCode":"EG","CountryName":"Egypt","Confirmed":0,"Deaths":0,"Latitude":"26.820553","Longitude":"30.802498"},{"Date":1578182400000,"CountryCode":"ES","CountryName":"Spain","Confirmed":0,"Deaths":0,"Latitude":"40.463667","Longitude":"-3.74922"},{"Date":1578182400000,"CountryCode":"FI","CountryName":"Finland","Confirmed":0,"Deaths":0,"Latitude":"61.92411","Longitude":"25.748151"},{"Date":1578182400000,"CountryCode":"FR","CountryName":"France","Confirmed":0,"Deaths":0,"Latitude":"46.227638","Longitude":"2.213749"},{"Date":1578182400000,"CountryCode":"GE","CountryName":"Georgia","Confirmed":0,"Deaths":0,"Latitude":"42.315407","Longitude":"43.356892"},{"Date":1578182400000,"CountryCode":"GR","CountryName":"Greece","Confirmed":0,"Deaths":0,"Latitude":"39.074208","Longitude":"21.824312"},{"Date":1578182400000,"CountryCode":"HR","CountryName":"Croatia","Confirmed":0,"Deaths":0,"Latitude":"45.1","Longitude":"15.2"},{"Date":1578182400000,"CountryCode":"ID","CountryName":"Indonesia","Confirmed":0,"Deaths":0,"Latitude":"-0.789275","Longitude":"113.921327"},{"Date":1578182400000,"CountryCode":"IE","CountryName":"Ireland","Confirmed":0,"Deaths":0,"Latitude":"53.41291","Longitude":"-8.24389"},{"Date":1578182400000,"CountryCode":"IL","CountryName":"Israel","Confirmed":0,"Deaths":0,"Latitude":"31.046051","Longitude":"34.851612"},{"Date":1578182400000,"CountryCode":"IN","CountryName":"India","Confirmed":0,"Deaths":0,"Latitude":"20.593684","Longitude":"78.96288"},{"Date":1578182400000,"CountryCode":"IQ","CountryName":"Iraq","Confirmed":0,"Deaths":0,"Latitude":"33.223191","Longitude":"43.679291"},{"Date":1578182400000,"CountryCode":"IR","CountryName":"Iran","Confirmed":0,"Deaths":0,"Latitude":"32.427908","Longitude":"53.688046"},{"Date":1578182400000,"CountryCode":"IS","CountryName":"Iceland","Confirmed":0,"Deaths":0,"Latitude":"64.963051","Longitude":"-19.020835"},{"Date":1578182400000,"CountryCode":"IT","CountryName":"Italy","Confirmed":0,"Deaths":0,"Latitude":"41.87194","Longitude":"12.56738"},{"Date":1578182400000,"CountryCode":"JP","CountryName":"Japan","Confirmed":0,"Deaths":0,"Latitude":"36.204824","Longitude":"138.252924"},{"Date":1578182400000,"CountryCode":"KH","CountryName":"Cambodia","Confirmed":0,"Deaths":0,"Latitude":"12.565679","Longitude":"104.990963"},{"Date":1578182400000,"CountryCode":"KR","CountryName":"South Korea","Confirmed":0,"Deaths":0,"Latitude":"35.907757","Longitude":"127.766922"},{"Date":1578182400000,"CountryCode":"KW","CountryName":"Kuwait","Confirmed":0,"Deaths":0,"Latitude":"29.31166","Longitude":"47.481766"},{"Date":1578182400000,"CountryCode":"LB","CountryName":"Lebanon","Confirmed":0,"Deaths":0,"Latitude":"33.854721","Longitude":"35.862285"},{"Date":1578182400000,"CountryCode":"LK","CountryName":"Sri Lanka","Confirmed":0,"Deaths":0,"Latitude":"7.873054","Longitude":"80.771797"},{"Date":1578182400000,"CountryCode":"LT","CountryName":"Lithuania","Confirmed":0,"Deaths":0,"Latitude":"55.169438","Longitude":"23.881275"},{"Date":1578182400000,"CountryCode":"LU","CountryName":"Luxembourg","Confirmed":0,"Deaths":0,"Latitude":"49.815273","Longitude":"6.129583"},{"Date":1578182400000,"CountryCode":"MC","CountryName":"Monaco","Confirmed":0,"Deaths":0,"Latitude":"43.750298","Longitude":"7.412841"},{"Date":1578182400000,"CountryCode":"MK","CountryName":"North Macedonia","Confirmed":0,"Deaths":0,"Latitude":"41.608635","Longitude":"21.745275"},{"Date":1578182400000,"CountryCode":"MX","CountryName":"Mexico","Confirmed":0,"Deaths":0,"Latitude":"23.634501","Longitude":"-102.552784"},{"Date":1578182400000,"CountryCode":"MY","CountryName":"Malaysia","Confirmed":0,"Deaths":0,"Latitude":"4.210484","Longitude":"101.975766"},{"Date":1578182400000,"CountryCode":"NG","CountryName":"Nigeria","Confirmed":0,"Deaths":0,"Latitude":"9.081999","Longitude":"8.675277"},{"Date":1578182400000,"CountryCode":"NL","CountryName":"Netherlands","Confirmed":0,"Deaths":0,"Latitude":"52.132633","Longitude":"5.291266"},{"Date":1578182400000,"CountryCode":"NO","CountryName":"Norway","Confirmed":0,"Deaths":0,"Latitude":"60.472024","Longitude":"8.468946"},{"Date":1578182400000,"CountryCode":"NP","CountryName":"Nepal","Confirmed":0,"Deaths":0,"Latitude":"28.394857","Longitude":"84.124008"},{"Date":1578182400000,"CountryCode":"NZ","CountryName":"New Zealand","Confirmed":0,"Deaths":0,"Latitude":"-40.900557","Longitude":"174.885971"},{"Date":1578182400000,"CountryCode":"OM","CountryName":"Oman","Confirmed":0,"Deaths":0,"Latitude":"21.512583","Longitude":"55.923255"},{"Date":1578182400000,"CountryCode":"PH","CountryName":"Philippines","Confirmed":0,"Deaths":0,"Latitude":"12.879721","Longitude":"121.774017"},{"Date":1578182400000,"CountryCode":"PK","CountryName":"Pakistan","Confirmed":0,"Deaths":0,"Latitude":"30.375321","Longitude":"69.345116"},{"Date":1578182400000,"CountryCode":"QA","CountryName":"Qatar","Confirmed":0,"Deaths":0,"Latitude":"25.354826","Longitude":"51.183884"},{"Date":1578182400000,"CountryCode":"RO","CountryName":"Romania","Confirmed":0,"Deaths":0,"Latitude":"45.943161","Longitude":"24.96676"},{"Date":1578182400000,"CountryCode":"RU","CountryName":"Russia","Confirmed":0,"Deaths":0,"Latitude":"61.52401","Longitude":"105.318756"},{"Date":1578182400000,"CountryCode":"SE","CountryName":"Sweden","Confirmed":0,"Deaths":0,"Latitude":"60.128161","Longitude":"18.643501"},{"Date":1578182400000,"CountryCode":"SG","CountryName":"Singapore","Confirmed":0,"Deaths":0,"Latitude":"1.352083","Longitude":"103.819836"},{"Date":1578182400000,"CountryCode":"SM","CountryName":"San Marino","Confirmed":0,"Deaths":0,"Latitude":"43.94236","Longitude":"12.457777"},{"Date":1578182400000,"CountryCode":"TH","CountryName":"Thailand","Confirmed":0,"Deaths":0,"Latitude":"15.870032","Longitude":"100.992541"},{"Date":1578182400000,"CountryCode":"TW","CountryName":"Taiwan","Confirmed":0,"Deaths":0,"Latitude":"23.69781","Longitude":"120.960515"},{"Date":1578182400000,"CountryCode":"UK","CountryName":"United Kingdom","Confirmed":0,"Deaths":0,"Latitude":"55.3781","Longitude":"3.4360"},{"Date":1578182400000,"CountryCode":"US","CountryName":"United States of America","Confirmed":0,"Deaths":0,"Latitude":"37.09024","Longitude":"-95.712891"},{"Date":1578182400000,"CountryCode":"VN","CountryName":"Vietnam","Confirmed":0,"Deaths":0,"Latitude":"14.058324","Longitude":"108.277199"},{"Date":1578268800000,"CountryCode":"AE","CountryName":"United Arab Emirates","Confirmed":0,"Deaths":0,"Latitude":"23.424076","Longitude":"53.847818"},{"Date":1578268800000,"CountryCode":"AF","CountryName":"Afghanistan","Confirmed":0,"Deaths":0,"Latitude":"33.93911","Longitude":"67.709953"},{"Date":1578268800000,"CountryCode":"AM","CountryName":"Armenia","Confirmed":0,"Deaths":0,"Latitude":"40.069099","Longitude":"45.038189"},{"Date":1578268800000,"CountryCode":"AT","CountryName":"Austria","Confirmed":0,"Deaths":0,"Latitude":"47.516231","Longitude":"14.550072"},{"Date":1578268800000,"CountryCode":"AU","CountryName":"Australia","Confirmed":0,"Deaths":0,"Latitude":"-25.274398","Longitude":"133.775136"},{"Date":1578268800000,"CountryCode":"AZ","CountryName":"Azerbaijan","Confirmed":0,"Deaths":0,"Latitude":"40.143105","Longitude":"47.576927"},{"Date":1578268800000,"CountryCode":"BE","CountryName":"Belgium","Confirmed":0,"Deaths":0,"Latitude":"50.503887","Longitude":"4.469936"},{"Date":1578268800000,"CountryCode":"BH","CountryName":"Bahrain","Confirmed":0,"Deaths":0,"Latitude":"25.930414","Longitude":"50.637772"},{"Date":1578268800000,"CountryCode":"BR","CountryName":"Brazil","Confirmed":0,"Deaths":0,"Latitude":"-14.235004","Longitude":"-51.92528"},{"Date":1578268800000,"CountryCode":"BY","CountryName":"Belarus","Confirmed":0,"Deaths":0,"Latitude":"53.709807","Longitude":"27.953389"},{"Date":1578268800000,"CountryCode":"CA","CountryName":"Canada","Confirmed":0,"Deaths":0,"Latitude":"56.130366","Longitude":"-106.346771"},{"Date":1578268800000,"CountryCode":"CH","CountryName":"Switzerland","Confirmed":0,"Deaths":0,"Latitude":"46.818188","Longitude":"8.227512"},{"Date":1578268800000,"CountryCode":"CN","CountryName":"China","Confirmed":59,"Deaths":0,"Latitude":"35.86166","Longitude":"104.195397"},{"Date":1578268800000,"CountryCode":"CZ","CountryName":"Czech Republic","Confirmed":0,"Deaths":0,"Latitude":"49.817492","Longitude":"15.472962"},{"Date":1578268800000,"CountryCode":"DE","CountryName":"Germany","Confirmed":0,"Deaths":0,"Latitude":"51.165691","Longitude":"10.451526"},{"Date":1578268800000,"CountryCode":"DK","CountryName":"Denmark","Confirmed":0,"Deaths":0,"Latitude":"56.26392","Longitude":"9.501785"},{"Date":1578268800000,"CountryCode":"DO","CountryName":"Dominican Republic","Confirmed":0,"Deaths":0,"Latitude":"18.735693","Longitude":"-70.162651"},{"Date":1578268800000,"CountryCode":"DZ","CountryName":"Algeria","Confirmed":0,"Deaths":0,"Latitude":"28.033886","Longitude":"1.659626"},{"Date":1578268800000,"CountryCode":"EC","CountryName":"Ecuador","Confirmed":0,"Deaths":0,"Latitude":"-1.831239","Longitude":"-78.183406"},{"Date":1578268800000,"CountryCode":"EE","CountryName":"Estonia","Confirmed":0,"Deaths":0,"Latitude":"58.595272","Longitude":"25.013607"},{"Date":1578268800000,"CountryCode":"EG","CountryName":"Egypt","Confirmed":0,"Deaths":0,"Latitude":"26.820553","Longitude":"30.802498"},{"Date":1578268800000,"CountryCode":"ES","CountryName":"Spain","Confirmed":0,"Deaths":0,"Latitude":"40.463667","Longitude":"-3.74922"},{"Date":1578268800000,"CountryCode":"FI","CountryName":"Finland","Confirmed":0,"Deaths":0,"Latitude":"61.92411","Longitude":"25.748151"},{"Date":1578268800000,"CountryCode":"FR","CountryName":"France","Confirmed":0,"Deaths":0,"Latitude":"46.227638","Longitude":"2.213749"},{"Date":1578268800000,"CountryCode":"GE","CountryName":"Georgia","Confirmed":0,"Deaths":0,"Latitude":"42.315407","Longitude":"43.356892"},{"Date":1578268800000,"CountryCode":"GR","CountryName":"Greece","Confirmed":0,"Deaths":0,"Latitude":"39.074208","Longitude":"21.824312"},{"Date":1578268800000,"CountryCode":"HR","CountryName":"Croatia","Confirmed":0,"Deaths":0,"Latitude":"45.1","Longitude":"15.2"},{"Date":1578268800000,"CountryCode":"ID","CountryName":"Indonesia","Confirmed":0,"Deaths":0,"Latitude":"-0.789275","Longitude":"113.921327"},{"Date":1578268800000,"CountryCode":"IE","CountryName":"Ireland","Confirmed":0,"Deaths":0,"Latitude":"53.41291","Longitude":"-8.24389"},{"Date":1578268800000,"CountryCode":"IL","CountryName":"Israel","Confirmed":0,"Deaths":0,"Latitude":"31.046051","Longitude":"34.851612"},{"Date":1578268800000,"CountryCode":"IN","CountryName":"India","Confirmed":0,"Deaths":0,"Latitude":"20.593684","Longitude":"78.96288"},{"Date":1578268800000,"CountryCode":"IQ","CountryName":"Iraq","Confirmed":0,"Deaths":0,"Latitude":"33.223191","Longitude":"43.679291"},{"Date":1578268800000,"CountryCode":"IR","CountryName":"Iran","Confirmed":0,"Deaths":0,"Latitude":"32.427908","Longitude":"53.688046"},{"Date":1578268800000,"CountryCode":"IS","CountryName":"Iceland","Confirmed":0,"Deaths":0,"Latitude":"64.963051","Longitude":"-19.020835"},{"Date":1578268800000,"CountryCode":"IT","CountryName":"Italy","Confirmed":0,"Deaths":0,"Latitude":"41.87194","Longitude":"12.56738"},{"Date":1578268800000,"CountryCode":"JP","CountryName":"Japan","Confirmed":0,"Deaths":0,"Latitude":"36.204824","Longitude":"138.252924"},{"Date":1578268800000,"CountryCode":"KH","CountryName":"Cambodia","Confirmed":0,"Deaths":0,"Latitude":"12.565679","Longitude":"104.990963"},{"Date":1578268800000,"CountryCode":"KR","CountryName":"South Korea","Confirmed":0,"Deaths":0,"Latitude":"35.907757","Longitude":"127.766922"},{"Date":1578268800000,"CountryCode":"KW","CountryName":"Kuwait","Confirmed":0,"Deaths":0,"Latitude":"29.31166","Longitude":"47.481766"},{"Date":1578268800000,"CountryCode":"LB","CountryName":"Lebanon","Confirmed":0,"Deaths":0,"Latitude":"33.854721","Longitude":"35.862285"},{"Date":1578268800000,"CountryCode":"LK","CountryName":"Sri Lanka","Confirmed":0,"Deaths":0,"Latitude":"7.873054","Longitude":"80.771797"},{"Date":1578268800000,"CountryCode":"LT","CountryName":"Lithuania","Confirmed":0,"Deaths":0,"Latitude":"55.169438","Longitude":"23.881275"},{"Date":1578268800000,"CountryCode":"LU","CountryName":"Luxembourg","Confirmed":0,"Deaths":0,"Latitude":"49.815273","Longitude":"6.129583"},{"Date":1578268800000,"CountryCode":"MC","CountryName":"Monaco","Confirmed":0,"Deaths":0,"Latitude":"43.750298","Longitude":"7.412841"},{"Date":1578268800000,"CountryCode":"MK","CountryName":"North Macedonia","Confirmed":0,"Deaths":0,"Latitude":"41.608635","Longitude":"21.745275"},{"Date":1578268800000,"CountryCode":"MX","CountryName":"Mexico","Confirmed":0,"Deaths":0,"Latitude":"23.634501","Longitude":"-102.552784"},{"Date":1578268800000,"CountryCode":"MY","CountryName":"Malaysia","Confirmed":0,"Deaths":0,"Latitude":"4.210484","Longitude":"101.975766"},{"Date":1578268800000,"CountryCode":"NG","CountryName":"Nigeria","Confirmed":0,"Deaths":0,"Latitude":"9.081999","Longitude":"8.675277"},{"Date":1578268800000,"CountryCode":"NL","CountryName":"Netherlands","Confirmed":0,"Deaths":0,"Latitude":"52.132633","Longitude":"5.291266"},{"Date":1578268800000,"CountryCode":"NO","CountryName":"Norway","Confirmed":0,"Deaths":0,"Latitude":"60.472024","Longitude":"8.468946"},{"Date":1578268800000,"CountryCode":"NP","CountryName":"Nepal","Confirmed":0,"Deaths":0,"Latitude":"28.394857","Longitude":"84.124008"},{"Date":1578268800000,"CountryCode":"NZ","CountryName":"New Zealand","Confirmed":0,"Deaths":0,"Latitude":"-40.900557","Longitude":"174.885971"},{"Date":1578268800000,"CountryCode":"OM","CountryName":"Oman","Confirmed":0,"Deaths":0,"Latitude":"21.512583","Longitude":"55.923255"},{"Date":1578268800000,"CountryCode":"PH","CountryName":"Philippines","Confirmed":0,"Deaths":0,"Latitude":"12.879721","Longitude":"121.774017"},{"Date":1578268800000,"CountryCode":"PK","CountryName":"Pakistan","Confirmed":0,"Deaths":0,"Latitude":"30.375321","Longitude":"69.345116"},{"Date":1578268800000,"CountryCode":"QA","CountryName":"Qatar","Confirmed":0,"Deaths":0,"Latitude":"25.354826","Longitude":"51.183884"},{"Date":1578268800000,"CountryCode":"RO","CountryName":"Romania","Confirmed":0,"Deaths":0,"Latitude":"45.943161","Longitude":"24.96676"},{"Date":1578268800000,"CountryCode":"RU","CountryName":"Russia","Confirmed":0,"Deaths":0,"Latitude":"61.52401","Longitude":"105.318756"},{"Date":1578268800000,"CountryCode":"SE","CountryName":"Sweden","Confirmed":0,"Deaths":0,"Latitude":"60.128161","Longitude":"18.643501"},{"Date":1578268800000,"CountryCode":"SG","CountryName":"Singapore","Confirmed":0,"Deaths":0,"Latitude":"1.352083","Longitude":"103.819836"},{"Date":1578268800000,"CountryCode":"SM","CountryName":"San Marino","Confirmed":0,"Deaths":0,"Latitude":"43.94236","Longitude":"12.457777"},{"Date":1578268800000,"CountryCode":"TH","CountryName":"Thailand","Confirmed":0,"Deaths":0,"Latitude":"15.870032","Longitude":"100.992541"},{"Date":1578268800000,"CountryCode":"TW","CountryName":"Taiwan","Confirmed":0,"Deaths":0,"Latitude":"23.69781","Longitude":"120.960515"},{"Date":1578268800000,"CountryCode":"UK","CountryName":"United Kingdom","Confirmed":0,"Deaths":0,"Latitude":"55.3781","Longitude":"3.4360"},{"Date":1578268800000,"CountryCode":"US","CountryName":"United States of America","Confirmed":0,"Deaths":0,"Latitude":"37.09024","Longitude":"-95.712891"},{"Date":1578268800000,"CountryCode":"VN","CountryName":"Vietnam","Confirmed":0,"Deaths":0,"Latitude":"14.058324","Longitude":"108.277199"},{"Date":1578355200000,"CountryCode":"AE","CountryName":"United Arab Emirates","Confirmed":0,"Deaths":0,"Latitude":"23.424076","Longitude":"53.847818"},{"Date":1578355200000,"CountryCode":"AF","CountryName":"Afghanistan","Confirmed":0,"Deaths":0,"Latitude":"33.93911","Longitude":"67.709953"},{"Date":1578355200000,"CountryCode":"AM","CountryName":"Armenia","Confirmed":0,"Deaths":0,"Latitude":"40.069099","Longitude":"45.038189"},{"Date":1578355200000,"CountryCode":"AT","CountryName":"Austria","Confirmed":0,"Deaths":0,"Latitude":"47.516231","Longitude":"14.550072"},{"Date":1578355200000,"CountryCode":"AU","CountryName":"Australia","Confirmed":0,"Deaths":0,"Latitude":"-25.274398","Longitude":"133.775136"},{"Date":1578355200000,"CountryCode":"AZ","CountryName":"Azerbaijan","Confirmed":0,"Deaths":0,"Latitude":"40.143105","Longitude":"47.576927"},{"Date":1578355200000,"CountryCode":"BE","CountryName":"Belgium","Confirmed":0,"Deaths":0,"Latitude":"50.503887","Longitude":"4.469936"},{"Date":1578355200000,"CountryCode":"BH","CountryName":"Bahrain","Confirmed":0,"Deaths":0,"Latitude":"25.930414","Longitude":"50.637772"},{"Date":1578355200000,"CountryCode":"BR","CountryName":"Brazil","Confirmed":0,"Deaths":0,"Latitude":"-14.235004","Longitude":"-51.92528"},{"Date":1578355200000,"CountryCode":"BY","CountryName":"Belarus","Confirmed":0,"Deaths":0,"Latitude":"53.709807","Longitude":"27.953389"},{"Date":1578355200000,"CountryCode":"CA","CountryName":"Canada","Confirmed":0,"Deaths":0,"Latitude":"56.130366","Longitude":"-106.346771"},{"Date":1578355200000,"CountryCode":"CH","CountryName":"Switzerland","Confirmed":0,"Deaths":0,"Latitude":"46.818188","Longitude":"8.227512"},{"Date":1578355200000,"CountryCode":"CN","CountryName":"China","Confirmed":59,"Deaths":0,"Latitude":"35.86166","Longitude":"104.195397"},{"Date":1578355200000,"CountryCode":"CZ","CountryName":"Czech Republic","Confirmed":0,"Deaths":0,"Latitude":"49.817492","Longitude":"15.472962"},{"Date":1578355200000,"CountryCode":"DE","CountryName":"Germany","Confirmed":0,"Deaths":0,"Latitude":"51.165691","Longitude":"10.451526"},{"Date":1578355200000,"CountryCode":"DK","CountryName":"Denmark","Confirmed":0,"Deaths":0,"Latitude":"56.26392","Longitude":"9.501785"},{"Date":1578355200000,"CountryCode":"DO","CountryName":"Dominican Republic","Confirmed":0,"Deaths":0,"Latitude":"18.735693","Longitude":"-70.162651"},{"Date":1578355200000,"CountryCode":"DZ","CountryName":"Algeria","Confirmed":0,"Deaths":0,"Latitude":"28.033886","Longitude":"1.659626"},{"Date":1578355200000,"CountryCode":"EC","CountryName":"Ecuador","Confirmed":0,"Deaths":0,"Latitude":"-1.831239","Longitude":"-78.183406"},{"Date":1578355200000,"CountryCode":"EE","CountryName":"Estonia","Confirmed":0,"Deaths":0,"Latitude":"58.595272","Longitude":"25.013607"},{"Date":1578355200000,"CountryCode":"EG","CountryName":"Egypt","Confirmed":0,"Deaths":0,"Latitude":"26.820553","Longitude":"30.802498"},{"Date":1578355200000,"CountryCode":"ES","CountryName":"Spain","Confirmed":0,"Deaths":0,"Latitude":"40.463667","Longitude":"-3.74922"},{"Date":1578355200000,"CountryCode":"FI","CountryName":"Finland","Confirmed":0,"Deaths":0,"Latitude":"61.92411","Longitude":"25.748151"},{"Date":1578355200000,"CountryCode":"FR","CountryName":"France","Confirmed":0,"Deaths":0,"Latitude":"46.227638","Longitude":"2.213749"},{"Date":1578355200000,"CountryCode":"GE","CountryName":"Georgia","Confirmed":0,"Deaths":0,"Latitude":"42.315407","Longitude":"43.356892"},{"Date":1578355200000,"CountryCode":"GR","CountryName":"Greece","Confirmed":0,"Deaths":0,"Latitude":"39.074208","Longitude":"21.824312"},{"Date":1578355200000,"CountryCode":"HR","CountryName":"Croatia","Confirmed":0,"Deaths":0,"Latitude":"45.1","Longitude":"15.2"},{"Date":1578355200000,"CountryCode":"ID","CountryName":"Indonesia","Confirmed":0,"Deaths":0,"Latitude":"-0.789275","Longitude":"113.921327"},{"Date":1578355200000,"CountryCode":"IE","CountryName":"Ireland","Confirmed":0,"Deaths":0,"Latitude":"53.41291","Longitude":"-8.24389"},{"Date":1578355200000,"CountryCode":"IL","CountryName":"Israel","Confirmed":0,"Deaths":0,"Latitude":"31.046051","Longitude":"34.851612"},{"Date":1578355200000,"CountryCode":"IN","CountryName":"India","Confirmed":0,"Deaths":0,"Latitude":"20.593684","Longitude":"78.96288"},{"Date":1578355200000,"CountryCode":"IQ","CountryName":"Iraq","Confirmed":0,"Deaths":0,"Latitude":"33.223191","Longitude":"43.679291"},{"Date":1578355200000,"CountryCode":"IR","CountryName":"Iran","Confirmed":0,"Deaths":0,"Latitude":"32.427908","Longitude":"53.688046"},{"Date":1578355200000,"CountryCode":"IS","CountryName":"Iceland","Confirmed":0,"Deaths":0,"Latitude":"64.963051","Longitude":"-19.020835"},{"Date":1578355200000,"CountryCode":"IT","CountryName":"Italy","Confirmed":0,"Deaths":0,"Latitude":"41.87194","Longitude":"12.56738"},{"Date":1578355200000,"CountryCode":"JP","CountryName":"Japan","Confirmed":0,"Deaths":0,"Latitude":"36.204824","Longitude":"138.252924"},{"Date":1578355200000,"CountryCode":"KH","CountryName":"Cambodia","Confirmed":0,"Deaths":0,"Latitude":"12.565679","Longitude":"104.990963"},{"Date":1578355200000,"CountryCode":"KR","CountryName":"South Korea","Confirmed":0,"Deaths":0,"Latitude":"35.907757","Longitude":"127.766922"},{"Date":1578355200000,"CountryCode":"KW","CountryName":"Kuwait","Confirmed":0,"Deaths":0,"Latitude":"29.31166","Longitude":"47.481766"},{"Date":1578355200000,"CountryCode":"LB","CountryName":"Lebanon","Confirmed":0,"Deaths":0,"Latitude":"33.854721","Longitude":"35.862285"},{"Date":1578355200000,"CountryCode":"LK","CountryName":"Sri Lanka","Confirmed":0,"Deaths":0,"Latitude":"7.873054","Longitude":"80.771797"},{"Date":1578355200000,"CountryCode":"LT","CountryName":"Lithuania","Confirmed":0,"Deaths":0,"Latitude":"55.169438","Longitude":"23.881275"},{"Date":1578355200000,"CountryCode":"LU","CountryName":"Luxembourg","Confirmed":0,"Deaths":0,"Latitude":"49.815273","Longitude":"6.129583"},{"Date":1578355200000,"CountryCode":"MC","CountryName":"Monaco","Confirmed":0,"Deaths":0,"Latitude":"43.750298","Longitude":"7.412841"},{"Date":1578355200000,"CountryCode":"MK","CountryName":"North Macedonia","Confirmed":0,"Deaths":0,"Latitude":"41.608635","Longitude":"21.745275"},{"Date":1578355200000,"CountryCode":"MX","CountryName":"Mexico","Confirmed":0,"Deaths":0,"Latitude":"23.634501","Longitude":"-102.552784"},{"Date":1578355200000,"CountryCode":"MY","CountryName":"Malaysia","Confirmed":0,"Deaths":0,"Latitude":"4.210484","Longitude":"101.975766"},{"Date":1578355200000,"CountryCode":"NG","CountryName":"Nigeria","Confirmed":0,"Deaths":0,"Latitude":"9.081999","Longitude":"8.675277"},{"Date":1578355200000,"CountryCode":"NL","CountryName":"Netherlands","Confirmed":0,"Deaths":0,"Latitude":"52.132633","Longitude":"5.291266"},{"Date":1578355200000,"CountryCode":"NO","CountryName":"Norway","Confirmed":0,"Deaths":0,"Latitude":"60.472024","Longitude":"8.468946"},{"Date":1578355200000,"CountryCode":"NP","CountryName":"Nepal","Confirmed":0,"Deaths":0,"Latitude":"28.394857","Longitude":"84.124008"},{"Date":1578355200000,"CountryCode":"NZ","CountryName":"New Zealand","Confirmed":0,"Deaths":0,"Latitude":"-40.900557","Longitude":"174.885971"},{"Date":1578355200000,"CountryCode":"OM","CountryName":"Oman","Confirmed":0,"Deaths":0,"Latitude":"21.512583","Longitude":"55.923255"},{"Date":1578355200000,"CountryCode":"PH","CountryName":"Philippines","Confirmed":0,"Deaths":0,"Latitude":"12.879721","Longitude":"121.774017"},{"Date":1578355200000,"CountryCode":"PK","CountryName":"Pakistan","Confirmed":0,"Deaths":0,"Latitude":"30.375321","Longitude":"69.345116"},{"Date":1578355200000,"CountryCode":"QA","CountryName":"Qatar","Confirmed":0,"Deaths":0,"Latitude":"25.354826","Longitude":"51.183884"},{"Date":1578355200000,"CountryCode":"RO","CountryName":"Romania","Confirmed":0,"Deaths":0,"Latitude":"45.943161","Longitude":"24.96676"},{"Date":1578355200000,"CountryCode":"RU","CountryName":"Russia","Confirmed":0,"Deaths":0,"Latitude":"61.52401","Longitude":"105.318756"},{"Date":1578355200000,"CountryCode":"SE","CountryName":"Sweden","Confirmed":0,"Deaths":0,"Latitude":"60.128161","Longitude":"18.643501"},{"Date":1578355200000,"CountryCode":"SG","CountryName":"Singapore","Confirmed":0,"Deaths":0,"Latitude":"1.352083","Longitude":"103.819836"},{"Date":1578355200000,"CountryCode":"SM","CountryName":"San Marino","Confirmed":0,"Deaths":0,"Latitude":"43.94236","Longitude":"12.457777"},{"Date":1578355200000,"CountryCode":"TH","CountryName":"Thailand","Confirmed":0,"Deaths":0,"Latitude":"15.870032","Longitude":"100.992541"},{"Date":1578355200000,"CountryCode":"TW","CountryName":"Taiwan","Confirmed":0,"Deaths":0,"Latitude":"23.69781","Longitude":"120.960515"},{"Date":1578355200000,"CountryCode":"UK","CountryName":"United Kingdom","Confirmed":0,"Deaths":0,"Latitude":"55.3781","Longitude":"3.4360"},{"Date":1578355200000,"CountryCode":"US","CountryName":"United States of America","Confirmed":0,"Deaths":0,"Latitude":"37.09024","Longitude":"-95.712891"},{"Date":1578355200000,"CountryCode":"VN","CountryName":"Vietnam","Confirmed":0,"Deaths":0,"Latitude":"14.058324","Longitude":"108.277199"},{"Date":1578441600000,"CountryCode":"AE","CountryName":"United Arab Emirates","Confirmed":0,"Deaths":0,"Latitude":"23.424076","Longitude":"53.847818"},{"Date":1578441600000,"CountryCode":"AF","CountryName":"Afghanistan","Confirmed":0,"Deaths":0,"Latitude":"33.93911","Longitude":"67.709953"},{"Date":1578441600000,"CountryCode":"AM","CountryName":"Armenia","Confirmed":0,"Deaths":0,"Latitude":"40.069099","Longitude":"45.038189"},{"Date":1578441600000,"CountryCode":"AT","CountryName":"Austria","Confirmed":0,"Deaths":0,"Latitude":"47.516231","Longitude":"14.550072"},{"Date":1578441600000,"CountryCode":"AU","CountryName":"Australia","Confirmed":0,"Deaths":0,"Latitude":"-25.274398","Longitude":"133.775136"},{"Date":1578441600000,"CountryCode":"AZ","CountryName":"Azerbaijan","Confirmed":0,"Deaths":0,"Latitude":"40.143105","Longitude":"47.576927"},{"Date":1578441600000,"CountryCode":"BE","CountryName":"Belgium","Confirmed":0,"Deaths":0,"Latitude":"50.503887","Longitude":"4.469936"},{"Date":1578441600000,"CountryCode":"BH","CountryName":"Bahrain","Confirmed":0,"Deaths":0,"Latitude":"25.930414","Longitude":"50.637772"},{"Date":1578441600000,"CountryCode":"BR","CountryName":"Brazil","Confirmed":0,"Deaths":0,"Latitude":"-14.235004","Longitude":"-51.92528"},{"Date":1578441600000,"CountryCode":"BY","CountryName":"Belarus","Confirmed":0,"Deaths":0,"Latitude":"53.709807","Longitude":"27.953389"},{"Date":1578441600000,"CountryCode":"CA","CountryName":"Canada","Confirmed":0,"Deaths":0,"Latitude":"56.130366","Longitude":"-106.346771"},{"Date":1578441600000,"CountryCode":"CH","CountryName":"Switzerland","Confirmed":0,"Deaths":0,"Latitude":"46.818188","Longitude":"8.227512"},{"Date":1578441600000,"CountryCode":"CN","CountryName":"China","Confirmed":59,"Deaths":0,"Latitude":"35.86166","Longitude":"104.195397"},{"Date":1578441600000,"CountryCode":"CZ","CountryName":"Czech Republic","Confirmed":0,"Deaths":0,"Latitude":"49.817492","Longitude":"15.472962"},{"Date":1578441600000,"CountryCode":"DE","CountryName":"Germany","Confirmed":0,"Deaths":0,"Latitude":"51.165691","Longitude":"10.451526"},{"Date":1578441600000,"CountryCode":"DK","CountryName":"Denmark","Confirmed":0,"Deaths":0,"Latitude":"56.26392","Longitude":"9.501785"},{"Date":1578441600000,"CountryCode":"DO","CountryName":"Dominican Republic","Confirmed":0,"Deaths":0,"Latitude":"18.735693","Longitude":"-70.162651"},{"Date":1578441600000,"CountryCode":"DZ","CountryName":"Algeria","Confirmed":0,"Deaths":0,"Latitude":"28.033886","Longitude":"1.659626"},{"Date":1578441600000,"CountryCode":"EC","CountryName":"Ecuador","Confirmed":0,"Deaths":0,"Latitude":"-1.831239","Longitude":"-78.183406"},{"Date":1578441600000,"CountryCode":"EE","CountryName":"Estonia","Confirmed":0,"Deaths":0,"Latitude":"58.595272","Longitude":"25.013607"},{"Date":1578441600000,"CountryCode":"EG","CountryName":"Egypt","Confirmed":0,"Deaths":0,"Latitude":"26.820553","Longitude":"30.802498"},{"Date":1578441600000,"CountryCode":"ES","CountryName":"Spain","Confirmed":0,"Deaths":0,"Latitude":"40.463667","Longitude":"-3.74922"},{"Date":1578441600000,"CountryCode":"FI","CountryName":"Finland","Confirmed":0,"Deaths":0,"Latitude":"61.92411","Longitude":"25.748151"},{"Date":1578441600000,"CountryCode":"FR","CountryName":"France","Confirmed":0,"Deaths":0,"Latitude":"46.227638","Longitude":"2.213749"},{"Date":1578441600000,"CountryCode":"GE","CountryName":"Georgia","Confirmed":0,"Deaths":0,"Latitude":"42.315407","Longitude":"43.356892"},{"Date":1578441600000,"CountryCode":"GR","CountryName":"Greece","Confirmed":0,"Deaths":0,"Latitude":"39.074208","Longitude":"21.824312"},{"Date":1578441600000,"CountryCode":"HR","CountryName":"Croatia","Confirmed":0,"Deaths":0,"Latitude":"45.1","Longitude":"15.2"},{"Date":1578441600000,"CountryCode":"ID","CountryName":"Indonesia","Confirmed":0,"Deaths":0,"Latitude":"-0.789275","Longitude":"113.921327"},{"Date":1578441600000,"CountryCode":"IE","CountryName":"Ireland","Confirmed":0,"Deaths":0,"Latitude":"53.41291","Longitude":"-8.24389"},{"Date":1578441600000,"CountryCode":"IL","CountryName":"Israel","Confirmed":0,"Deaths":0,"Latitude":"31.046051","Longitude":"34.851612"},{"Date":1578441600000,"CountryCode":"IN","CountryName":"India","Confirmed":0,"Deaths":0,"Latitude":"20.593684","Longitude":"78.96288"},{"Date":1578441600000,"CountryCode":"IQ","CountryName":"Iraq","Confirmed":0,"Deaths":0,"Latitude":"33.223191","Longitude":"43.679291"},{"Date":1578441600000,"CountryCode":"IR","CountryName":"Iran","Confirmed":0,"Deaths":0,"Latitude":"32.427908","Longitude":"53.688046"},{"Date":1578441600000,"CountryCode":"IS","CountryName":"Iceland","Confirmed":0,"Deaths":0,"Latitude":"64.963051","Longitude":"-19.020835"},{"Date":1578441600000,"CountryCode":"IT","CountryName":"Italy","Confirmed":0,"Deaths":0,"Latitude":"41.87194","Longitude":"12.56738"},{"Date":1578441600000,"CountryCode":"JP","CountryName":"Japan","Confirmed":0,"Deaths":0,"Latitude":"36.204824","Longitude":"138.252924"},{"Date":1578441600000,"CountryCode":"KH","CountryName":"Cambodia","Confirmed":0,"Deaths":0,"Latitude":"12.565679","Longitude":"104.990963"},{"Date":1578441600000,"CountryCode":"KR","CountryName":"South Korea","Confirmed":0,"Deaths":0,"Latitude":"35.907757","Longitude":"127.766922"},{"Date":1578441600000,"CountryCode":"KW","CountryName":"Kuwait","Confirmed":0,"Deaths":0,"Latitude":"29.31166","Longitude":"47.481766"},{"Date":1578441600000,"CountryCode":"LB","CountryName":"Lebanon","Confirmed":0,"Deaths":0,"Latitude":"33.854721","Longitude":"35.862285"},{"Date":1578441600000,"CountryCode":"LK","CountryName":"Sri Lanka","Confirmed":0,"Deaths":0,"Latitude":"7.873054","Longitude":"80.771797"},{"Date":1578441600000,"CountryCode":"LT","CountryName":"Lithuania","Confirmed":0,"Deaths":0,"Latitude":"55.169438","Longitude":"23.881275"},{"Date":1578441600000,"CountryCode":"LU","CountryName":"Luxembourg","Confirmed":0,"Deaths":0,"Latitude":"49.815273","Longitude":"6.129583"},{"Date":1578441600000,"CountryCode":"MC","CountryName":"Monaco","Confirmed":0,"Deaths":0,"Latitude":"43.750298","Longitude":"7.412841"},{"Date":1578441600000,"CountryCode":"MK","CountryName":"North Macedonia","Confirmed":0,"Deaths":0,"Latitude":"41.608635","Longitude":"21.745275"},{"Date":1578441600000,"CountryCode":"MX","CountryName":"Mexico","Confirmed":0,"Deaths":0,"Latitude":"23.634501","Longitude":"-102.552784"},{"Date":1578441600000,"CountryCode":"MY","CountryName":"Malaysia","Confirmed":0,"Deaths":0,"Latitude":"4.210484","Longitude":"101.975766"},{"Date":1578441600000,"CountryCode":"NG","CountryName":"Nigeria","Confirmed":0,"Deaths":0,"Latitude":"9.081999","Longitude":"8.675277"},{"Date":1578441600000,"CountryCode":"NL","CountryName":"Netherlands","Confirmed":0,"Deaths":0,"Latitude":"52.132633","Longitude":"5.291266"},{"Date":1578441600000,"CountryCode":"NO","CountryName":"Norway","Confirmed":0,"Deaths":0,"Latitude":"60.472024","Longitude":"8.468946"},{"Date":1578441600000,"CountryCode":"NP","CountryName":"Nepal","Confirmed":0,"Deaths":0,"Latitude":"28.394857","Longitude":"84.124008"},{"Date":1578441600000,"CountryCode":"NZ","CountryName":"New Zealand","Confirmed":0,"Deaths":0,"Latitude":"-40.900557","Longitude":"174.885971"},{"Date":1578441600000,"CountryCode":"OM","CountryName":"Oman","Confirmed":0,"Deaths":0,"Latitude":"21.512583","Longitude":"55.923255"},{"Date":1578441600000,"CountryCode":"PH","CountryName":"Philippines","Confirmed":0,"Deaths":0,"Latitude":"12.879721","Longitude":"121.774017"},{"Date":1578441600000,"CountryCode":"PK","CountryName":"Pakistan","Confirmed":0,"Deaths":0,"Latitude":"30.375321","Longitude":"69.345116"},{"Date":1578441600000,"CountryCode":"QA","CountryName":"Qatar","Confirmed":0,"Deaths":0,"Latitude":"25.354826","Longitude":"51.183884"},{"Date":1578441600000,"CountryCode":"RO","CountryName":"Romania","Confirmed":0,"Deaths":0,"Latitude":"45.943161","Longitude":"24.96676"},{"Date":1578441600000,"CountryCode":"RU","CountryName":"Russia","Confirmed":0,"Deaths":0,"Latitude":"61.52401","Longitude":"105.318756"},{"Date":1578441600000,"CountryCode":"SE","CountryName":"Sweden","Confirmed":0,"Deaths":0,"Latitude":"60.128161","Longitude":"18.643501"},{"Date":1578441600000,"CountryCode":"SG","CountryName":"Singapore","Confirmed":0,"Deaths":0,"Latitude":"1.352083","Longitude":"103.819836"},{"Date":1578441600000,"CountryCode":"SM","CountryName":"San Marino","Confirmed":0,"Deaths":0,"Latitude":"43.94236","Longitude":"12.457777"},{"Date":1578441600000,"CountryCode":"TH","CountryName":"Thailand","Confirmed":0,"Deaths":0,"Latitude":"15.870032","Longitude":"100.992541"},{"Date":1578441600000,"CountryCode":"TW","CountryName":"Taiwan","Confirmed":0,"Deaths":0,"Latitude":"23.69781","Longitude":"120.960515"},{"Date":1578441600000,"CountryCode":"UK","CountryName":"United Kingdom","Confirmed":0,"Deaths":0,"Latitude":"55.3781","Longitude":"3.4360"},{"Date":1578441600000,"CountryCode":"US","CountryName":"United States of America","Confirmed":0,"Deaths":0,"Latitude":"37.09024","Longitude":"-95.712891"},{"Date":1578441600000,"CountryCode":"VN","CountryName":"Vietnam","Confirmed":0,"Deaths":0,"Latitude":"14.058324","Longitude":"108.277199"},{"Date":1578528000000,"CountryCode":"AE","CountryName":"United Arab Emirates","Confirmed":0,"Deaths":0,"Latitude":"23.424076","Longitude":"53.847818"},{"Date":1578528000000,"CountryCode":"AF","CountryName":"Afghanistan","Confirmed":0,"Deaths":0,"Latitude":"33.93911","Longitude":"67.709953"},{"Date":1578528000000,"CountryCode":"AM","CountryName":"Armenia","Confirmed":0,"Deaths":0,"Latitude":"40.069099","Longitude":"45.038189"},{"Date":1578528000000,"CountryCode":"AT","CountryName":"Austria","Confirmed":0,"Deaths":0,"Latitude":"47.516231","Longitude":"14.550072"},{"Date":1578528000000,"CountryCode":"AU","CountryName":"Australia","Confirmed":0,"Deaths":0,"Latitude":"-25.274398","Longitude":"133.775136"},{"Date":1578528000000,"CountryCode":"AZ","CountryName":"Azerbaijan","Confirmed":0,"Deaths":0,"Latitude":"40.143105","Longitude":"47.576927"},{"Date":1578528000000,"CountryCode":"BE","CountryName":"Belgium","Confirmed":0,"Deaths":0,"Latitude":"50.503887","Longitude":"4.469936"},{"Date":1578528000000,"CountryCode":"BH","CountryName":"Bahrain","Confirmed":0,"Deaths":0,"Latitude":"25.930414","Longitude":"50.637772"},{"Date":1578528000000,"CountryCode":"BR","CountryName":"Brazil","Confirmed":0,"Deaths":0,"Latitude":"-14.235004","Longitude":"-51.92528"},{"Date":1578528000000,"CountryCode":"BY","CountryName":"Belarus","Confirmed":0,"Deaths":0,"Latitude":"53.709807","Longitude":"27.953389"},{"Date":1578528000000,"CountryCode":"CA","CountryName":"Canada","Confirmed":0,"Deaths":0,"Latitude":"56.130366","Longitude":"-106.346771"},{"Date":1578528000000,"CountryCode":"CH","CountryName":"Switzerland","Confirmed":0,"Deaths":0,"Latitude":"46.818188","Longitude":"8.227512"},{"Date":1578528000000,"CountryCode":"CN","CountryName":"China","Confirmed":59,"Deaths":0,"Latitude":"35.86166","Longitude":"104.195397"},{"Date":1578528000000,"CountryCode":"CZ","CountryName":"Czech Republic","Confirmed":0,"Deaths":0,"Latitude":"49.817492","Longitude":"15.472962"},{"Date":1578528000000,"CountryCode":"DE","CountryName":"Germany","Confirmed":0,"Deaths":0,"Latitude":"51.165691","Longitude":"10.451526"},{"Date":1578528000000,"CountryCode":"DK","CountryName":"Denmark","Confirmed":0,"Deaths":0,"Latitude":"56.26392","Longitude":"9.501785"},{"Date":1578528000000,"CountryCode":"DO","CountryName":"Dominican Republic","Confirmed":0,"Deaths":0,"Latitude":"18.735693","Longitude":"-70.162651"},{"Date":1578528000000,"CountryCode":"DZ","CountryName":"Algeria","Confirmed":0,"Deaths":0,"Latitude":"28.033886","Longitude":"1.659626"},{"Date":1578528000000,"CountryCode":"EC","CountryName":"Ecuador","Confirmed":0,"Deaths":0,"Latitude":"-1.831239","Longitude":"-78.183406"},{"Date":1578528000000,"CountryCode":"EE","CountryName":"Estonia","Confirmed":0,"Deaths":0,"Latitude":"58.595272","Longitude":"25.013607"},{"Date":1578528000000,"CountryCode":"EG","CountryName":"Egypt","Confirmed":0,"Deaths":0,"Latitude":"26.820553","Longitude":"30.802498"},{"Date":1578528000000,"CountryCode":"ES","CountryName":"Spain","Confirmed":0,"Deaths":0,"Latitude":"40.463667","Longitude":"-3.74922"},{"Date":1578528000000,"CountryCode":"FI","CountryName":"Finland","Confirmed":0,"Deaths":0,"Latitude":"61.92411","Longitude":"25.748151"},{"Date":1578528000000,"CountryCode":"FR","CountryName":"France","Confirmed":0,"Deaths":0,"Latitude":"46.227638","Longitude":"2.213749"},{"Date":1578528000000,"CountryCode":"GE","CountryName":"Georgia","Confirmed":0,"Deaths":0,"Latitude":"42.315407","Longitude":"43.356892"},{"Date":1578528000000,"CountryCode":"GR","CountryName":"Greece","Confirmed":0,"Deaths":0,"Latitude":"39.074208","Longitude":"21.824312"},{"Date":1578528000000,"CountryCode":"HR","CountryName":"Croatia","Confirmed":0,"Deaths":0,"Latitude":"45.1","Longitude":"15.2"},{"Date":1578528000000,"CountryCode":"ID","CountryName":"Indonesia","Confirmed":0,"Deaths":0,"Latitude":"-0.789275","Longitude":"113.921327"},{"Date":1578528000000,"CountryCode":"IE","CountryName":"Ireland","Confirmed":0,"Deaths":0,"Latitude":"53.41291","Longitude":"-8.24389"},{"Date":1578528000000,"CountryCode":"IL","CountryName":"Israel","Confirmed":0,"Deaths":0,"Latitude":"31.046051","Longitude":"34.851612"},{"Date":1578528000000,"CountryCode":"IN","CountryName":"India","Confirmed":0,"Deaths":0,"Latitude":"20.593684","Longitude":"78.96288"},{"Date":1578528000000,"CountryCode":"IQ","CountryName":"Iraq","Confirmed":0,"Deaths":0,"Latitude":"33.223191","Longitude":"43.679291"},{"Date":1578528000000,"CountryCode":"IR","CountryName":"Iran","Confirmed":0,"Deaths":0,"Latitude":"32.427908","Longitude":"53.688046"},{"Date":1578528000000,"CountryCode":"IS","CountryName":"Iceland","Confirmed":0,"Deaths":0,"Latitude":"64.963051","Longitude":"-19.020835"},{"Date":1578528000000,"CountryCode":"IT","CountryName":"Italy","Confirmed":0,"Deaths":0,"Latitude":"41.87194","Longitude":"12.56738"},{"Date":1578528000000,"CountryCode":"JP","CountryName":"Japan","Confirmed":0,"Deaths":0,"Latitude":"36.204824","Longitude":"138.252924"},{"Date":1578528000000,"CountryCode":"KH","CountryName":"Cambodia","Confirmed":0,"Deaths":0,"Latitude":"12.565679","Longitude":"104.990963"},{"Date":1578528000000,"CountryCode":"KR","CountryName":"South Korea","Confirmed":0,"Deaths":0,"Latitude":"35.907757","Longitude":"127.766922"},{"Date":1578528000000,"CountryCode":"KW","CountryName":"Kuwait","Confirmed":0,"Deaths":0,"Latitude":"29.31166","Longitude":"47.481766"},{"Date":1578528000000,"CountryCode":"LB","CountryName":"Lebanon","Confirmed":0,"Deaths":0,"Latitude":"33.854721","Longitude":"35.862285"},{"Date":1578528000000,"CountryCode":"LK","CountryName":"Sri Lanka","Confirmed":0,"Deaths":0,"Latitude":"7.873054","Longitude":"80.771797"},{"Date":1578528000000,"CountryCode":"LT","CountryName":"Lithuania","Confirmed":0,"Deaths":0,"Latitude":"55.169438","Longitude":"23.881275"},{"Date":1578528000000,"CountryCode":"LU","CountryName":"Luxembourg","Confirmed":0,"Deaths":0,"Latitude":"49.815273","Longitude":"6.129583"},{"Date":1578528000000,"CountryCode":"MC","CountryName":"Monaco","Confirmed":0,"Deaths":0,"Latitude":"43.750298","Longitude":"7.412841"},{"Date":1578528000000,"CountryCode":"MK","CountryName":"North Macedonia","Confirmed":0,"Deaths":0,"Latitude":"41.608635","Longitude":"21.745275"},{"Date":1578528000000,"CountryCode":"MX","CountryName":"Mexico","Confirmed":0,"Deaths":0,"Latitude":"23.634501","Longitude":"-102.552784"},{"Date":1578528000000,"CountryCode":"MY","CountryName":"Malaysia","Confirmed":0,"Deaths":0,"Latitude":"4.210484","Longitude":"101.975766"},{"Date":1578528000000,"CountryCode":"NG","CountryName":"Nigeria","Confirmed":0,"Deaths":0,"Latitude":"9.081999","Longitude":"8.675277"},{"Date":1578528000000,"CountryCode":"NL","CountryName":"Netherlands","Confirmed":0,"Deaths":0,"Latitude":"52.132633","Longitude":"5.291266"},{"Date":1578528000000,"CountryCode":"NO","CountryName":"Norway","Confirmed":0,"Deaths":0,"Latitude":"60.472024","Longitude":"8.468946"},{"Date":1578528000000,"CountryCode":"NP","CountryName":"Nepal","Confirmed":0,"Deaths":0,"Latitude":"28.394857","Longitude":"84.124008"},{"Date":1578528000000,"CountryCode":"NZ","CountryName":"New Zealand","Confirmed":0,"Deaths":0,"Latitude":"-40.900557","Longitude":"174.885971"},{"Date":1578528000000,"CountryCode":"OM","CountryName":"Oman","Confirmed":0,"Deaths":0,"Latitude":"21.512583","Longitude":"55.923255"},{"Date":1578528000000,"CountryCode":"PH","CountryName":"Philippines","Confirmed":0,"Deaths":0,"Latitude":"12.879721","Longitude":"121.774017"},{"Date":1578528000000,"CountryCode":"PK","CountryName":"Pakistan","Confirmed":0,"Deaths":0,"Latitude":"30.375321","Longitude":"69.345116"},{"Date":1578528000000,"CountryCode":"QA","CountryName":"Qatar","Confirmed":0,"Deaths":0,"Latitude":"25.354826","Longitude":"51.183884"},{"Date":1578528000000,"CountryCode":"RO","CountryName":"Romania","Confirmed":0,"Deaths":0,"Latitude":"45.943161","Longitude":"24.96676"},{"Date":1578528000000,"CountryCode":"RU","CountryName":"Russia","Confirmed":0,"Deaths":0,"Latitude":"61.52401","Longitude":"105.318756"},{"Date":1578528000000,"CountryCode":"SE","CountryName":"Sweden","Confirmed":0,"Deaths":0,"Latitude":"60.128161","Longitude":"18.643501"},{"Date":1578528000000,"CountryCode":"SG","CountryName":"Singapore","Confirmed":0,"Deaths":0,"Latitude":"1.352083","Longitude":"103.819836"},{"Date":1578528000000,"CountryCode":"SM","CountryName":"San Marino","Confirmed":0,"Deaths":0,"Latitude":"43.94236","Longitude":"12.457777"},{"Date":1578528000000,"CountryCode":"TH","CountryName":"Thailand","Confirmed":0,"Deaths":0,"Latitude":"15.870032","Longitude":"100.992541"},{"Date":1578528000000,"CountryCode":"TW","CountryName":"Taiwan","Confirmed":0,"Deaths":0,"Latitude":"23.69781","Longitude":"120.960515"},{"Date":1578528000000,"CountryCode":"UK","CountryName":"United Kingdom","Confirmed":0,"Deaths":0,"Latitude":"55.3781","Longitude":"3.4360"},{"Date":1578528000000,"CountryCode":"US","CountryName":"United States of America","Confirmed":0,"Deaths":0,"Latitude":"37.09024","Longitude":"-95.712891"},{"Date":1578528000000,"CountryCode":"VN","CountryName":"Vietnam","Confirmed":0,"Deaths":0,"Latitude":"14.058324","Longitude":"108.277199"},{"Date":1578614400000,"CountryCode":"AE","CountryName":"United Arab Emirates","Confirmed":0,"Deaths":0,"Latitude":"23.424076","Longitude":"53.847818"},{"Date":1578614400000,"CountryCode":"AF","CountryName":"Afghanistan","Confirmed":0,"Deaths":0,"Latitude":"33.93911","Longitude":"67.709953"},{"Date":1578614400000,"CountryCode":"AM","CountryName":"Armenia","Confirmed":0,"Deaths":0,"Latitude":"40.069099","Longitude":"45.038189"},{"Date":1578614400000,"CountryCode":"AT","CountryName":"Austria","Confirmed":0,"Deaths":0,"Latitude":"47.516231","Longitude":"14.550072"},{"Date":1578614400000,"CountryCode":"AU","CountryName":"Australia","Confirmed":0,"Deaths":0,"Latitude":"-25.274398","Longitude":"133.775136"},{"Date":1578614400000,"CountryCode":"AZ","CountryName":"Azerbaijan","Confirmed":0,"Deaths":0,"Latitude":"40.143105","Longitude":"47.576927"},{"Date":1578614400000,"CountryCode":"BE","CountryName":"Belgium","Confirmed":0,"Deaths":0,"Latitude":"50.503887","Longitude":"4.469936"},{"Date":1578614400000,"CountryCode":"BH","CountryName":"Bahrain","Confirmed":0,"Deaths":0,"Latitude":"25.930414","Longitude":"50.637772"},{"Date":1578614400000,"CountryCode":"BR","CountryName":"Brazil","Confirmed":0,"Deaths":0,"Latitude":"-14.235004","Longitude":"-51.92528"},{"Date":1578614400000,"CountryCode":"BY","CountryName":"Belarus","Confirmed":0,"Deaths":0,"Latitude":"53.709807","Longitude":"27.953389"},{"Date":1578614400000,"CountryCode":"CA","CountryName":"Canada","Confirmed":0,"Deaths":0,"Latitude":"56.130366","Longitude":"-106.346771"},{"Date":1578614400000,"CountryCode":"CH","CountryName":"Switzerland","Confirmed":0,"Deaths":0,"Latitude":"46.818188","Longitude":"8.227512"},{"Date":1578614400000,"CountryCode":"CN","CountryName":"China","Confirmed":59,"Deaths":0,"Latitude":"35.86166","Longitude":"104.195397"},{"Date":1578614400000,"CountryCode":"CZ","CountryName":"Czech Republic","Confirmed":0,"Deaths":0,"Latitude":"49.817492","Longitude":"15.472962"},{"Date":1578614400000,"CountryCode":"DE","CountryName":"Germany","Confirmed":0,"Deaths":0,"Latitude":"51.165691","Longitude":"10.451526"},{"Date":1578614400000,"CountryCode":"DK","CountryName":"Denmark","Confirmed":0,"Deaths":0,"Latitude":"56.26392","Longitude":"9.501785"},{"Date":1578614400000,"CountryCode":"DO","CountryName":"Dominican Republic","Confirmed":0,"Deaths":0,"Latitude":"18.735693","Longitude":"-70.162651"},{"Date":1578614400000,"CountryCode":"DZ","CountryName":"Algeria","Confirmed":0,"Deaths":0,"Latitude":"28.033886","Longitude":"1.659626"},{"Date":1578614400000,"CountryCode":"EC","CountryName":"Ecuador","Confirmed":0,"Deaths":0,"Latitude":"-1.831239","Longitude":"-78.183406"},{"Date":1578614400000,"CountryCode":"EE","CountryName":"Estonia","Confirmed":0,"Deaths":0,"Latitude":"58.595272","Longitude":"25.013607"},{"Date":1578614400000,"CountryCode":"EG","CountryName":"Egypt","Confirmed":0,"Deaths":0,"Latitude":"26.820553","Longitude":"30.802498"},{"Date":1578614400000,"CountryCode":"ES","CountryName":"Spain","Confirmed":0,"Deaths":0,"Latitude":"40.463667","Longitude":"-3.74922"},{"Date":1578614400000,"CountryCode":"FI","CountryName":"Finland","Confirmed":0,"Deaths":0,"Latitude":"61.92411","Longitude":"25.748151"},{"Date":1578614400000,"CountryCode":"FR","CountryName":"France","Confirmed":0,"Deaths":0,"Latitude":"46.227638","Longitude":"2.213749"},{"Date":1578614400000,"CountryCode":"GE","CountryName":"Georgia","Confirmed":0,"Deaths":0,"Latitude":"42.315407","Longitude":"43.356892"},{"Date":1578614400000,"CountryCode":"GR","CountryName":"Greece","Confirmed":0,"Deaths":0,"Latitude":"39.074208","Longitude":"21.824312"},{"Date":1578614400000,"CountryCode":"HR","CountryName":"Croatia","Confirmed":0,"Deaths":0,"Latitude":"45.1","Longitude":"15.2"},{"Date":1578614400000,"CountryCode":"ID","CountryName":"Indonesia","Confirmed":0,"Deaths":0,"Latitude":"-0.789275","Longitude":"113.921327"},{"Date":1578614400000,"CountryCode":"IE","CountryName":"Ireland","Confirmed":0,"Deaths":0,"Latitude":"53.41291","Longitude":"-8.24389"},{"Date":1578614400000,"CountryCode":"IL","CountryName":"Israel","Confirmed":0,"Deaths":0,"Latitude":"31.046051","Longitude":"34.851612"},{"Date":1578614400000,"CountryCode":"IN","CountryName":"India","Confirmed":0,"Deaths":0,"Latitude":"20.593684","Longitude":"78.96288"},{"Date":1578614400000,"CountryCode":"IQ","CountryName":"Iraq","Confirmed":0,"Deaths":0,"Latitude":"33.223191","Longitude":"43.679291"},{"Date":1578614400000,"CountryCode":"IR","CountryName":"Iran","Confirmed":0,"Deaths":0,"Latitude":"32.427908","Longitude":"53.688046"},{"Date":1578614400000,"CountryCode":"IS","CountryName":"Iceland","Confirmed":0,"Deaths":0,"Latitude":"64.963051","Longitude":"-19.020835"},{"Date":1578614400000,"CountryCode":"IT","CountryName":"Italy","Confirmed":0,"Deaths":0,"Latitude":"41.87194","Longitude":"12.56738"},{"Date":1578614400000,"CountryCode":"JP","CountryName":"Japan","Confirmed":0,"Deaths":0,"Latitude":"36.204824","Longitude":"138.252924"},{"Date":1578614400000,"CountryCode":"KH","CountryName":"Cambodia","Confirmed":0,"Deaths":0,"Latitude":"12.565679","Longitude":"104.990963"},{"Date":1578614400000,"CountryCode":"KR","CountryName":"South Korea","Confirmed":0,"Deaths":0,"Latitude":"35.907757","Longitude":"127.766922"},{"Date":1578614400000,"CountryCode":"KW","CountryName":"Kuwait","Confirmed":0,"Deaths":0,"Latitude":"29.31166","Longitude":"47.481766"},{"Date":1578614400000,"CountryCode":"LB","CountryName":"Lebanon","Confirmed":0,"Deaths":0,"Latitude":"33.854721","Longitude":"35.862285"},{"Date":1578614400000,"CountryCode":"LK","CountryName":"Sri Lanka","Confirmed":0,"Deaths":0,"Latitude":"7.873054","Longitude":"80.771797"},{"Date":1578614400000,"CountryCode":"LT","CountryName":"Lithuania","Confirmed":0,"Deaths":0,"Latitude":"55.169438","Longitude":"23.881275"},{"Date":1578614400000,"CountryCode":"LU","CountryName":"Luxembourg","Confirmed":0,"Deaths":0,"Latitude":"49.815273","Longitude":"6.129583"},{"Date":1578614400000,"CountryCode":"MC","CountryName":"Monaco","Confirmed":0,"Deaths":0,"Latitude":"43.750298","Longitude":"7.412841"},{"Date":1578614400000,"CountryCode":"MK","CountryName":"North Macedonia","Confirmed":0,"Deaths":0,"Latitude":"41.608635","Longitude":"21.745275"},{"Date":1578614400000,"CountryCode":"MX","CountryName":"Mexico","Confirmed":0,"Deaths":0,"Latitude":"23.634501","Longitude":"-102.552784"},{"Date":1578614400000,"CountryCode":"MY","CountryName":"Malaysia","Confirmed":0,"Deaths":0,"Latitude":"4.210484","Longitude":"101.975766"},{"Date":1578614400000,"CountryCode":"NG","CountryName":"Nigeria","Confirmed":0,"Deaths":0,"Latitude":"9.081999","Longitude":"8.675277"},{"Date":1578614400000,"CountryCode":"NL","CountryName":"Netherlands","Confirmed":0,"Deaths":0,"Latitude":"52.132633","Longitude":"5.291266"},{"Date":1578614400000,"CountryCode":"NO","CountryName":"Norway","Confirmed":0,"Deaths":0,"Latitude":"60.472024","Longitude":"8.468946"},{"Date":1578614400000,"CountryCode":"NP","CountryName":"Nepal","Confirmed":0,"Deaths":0,"Latitude":"28.394857","Longitude":"84.124008"},{"Date":1578614400000,"CountryCode":"NZ","CountryName":"New Zealand","Confirmed":0,"Deaths":0,"Latitude":"-40.900557","Longitude":"174.885971"},{"Date":1578614400000,"CountryCode":"OM","CountryName":"Oman","Confirmed":0,"Deaths":0,"Latitude":"21.512583","Longitude":"55.923255"},{"Date":1578614400000,"CountryCode":"PH","CountryName":"Philippines","Confirmed":0,"Deaths":0,"Latitude":"12.879721","Longitude":"121.774017"},{"Date":1578614400000,"CountryCode":"PK","CountryName":"Pakistan","Confirmed":0,"Deaths":0,"Latitude":"30.375321","Longitude":"69.345116"},{"Date":1578614400000,"CountryCode":"QA","CountryName":"Qatar","Confirmed":0,"Deaths":0,"Latitude":"25.354826","Longitude":"51.183884"},{"Date":1578614400000,"CountryCode":"RO","CountryName":"Romania","Confirmed":0,"Deaths":0,"Latitude":"45.943161","Longitude":"24.96676"},{"Date":1578614400000,"CountryCode":"RU","CountryName":"Russia","Confirmed":0,"Deaths":0,"Latitude":"61.52401","Longitude":"105.318756"},{"Date":1578614400000,"CountryCode":"SE","CountryName":"Sweden","Confirmed":0,"Deaths":0,"Latitude":"60.128161","Longitude":"18.643501"},{"Date":1578614400000,"CountryCode":"SG","CountryName":"Singapore","Confirmed":0,"Deaths":0,"Latitude":"1.352083","Longitude":"103.819836"},